[
  {
    "name": "Krakow, Poland",
    "lat": 50.0647,
    "lng": 19.9450,
    "links": [
      {
        "type": "K-PACK",
        "path": "data/poland/kpack/krakow",
        "color": "blue"
      }
    ]
  },
  {
    "name": "Poznan, Poland",
    "lat": 52.4064,
    "lng": 16.9252,
    "links": [
      {
        "type": "Arres",
        "path": "data/poland/arres/poznan",
        "color": "blue"
      },
      {
        "type": "K-PACK",
        "path": "data/poland/kpack/poznan",
        "color": "blue"
      }
    ]
  },
  {
    "name": "Warsaw, Poland",
    "lat": 52.2298,
    "lng": 21.0122,
    "links": [
      {
        "type": "Arres",
        "path": "data/poland/arres/warsaw",
        "color": "blue"
      },
        {
        "type": "K-PACK",
        "path": "data/poland/kpack/warsaw",
        "color": "blue"
      }
    ]
  },
  {
    "name": "Wronki, Poland",
    "lat": 52.7106,
    "lng": 16.3771,
    "links": [
      {
        "type": "K-PACK",
        "path": "data/poland/kpack/wronki",
        "color": "blue"
      }
    ]
  },
  {
    "name": "Katowice, Poland",
    "lat": 50.2649,
    "lng": 19.0238,
    "links": [
      {
        "type": "K-PACK",
        "path": "data/poland/kpack/katowice",
        "color": "blue"
      }
    ]
  },
  {
    "name": "Wroclaw, Poland",
    "lat": 51.1079,
    "lng": 17.0385,
    "links": [
      {
        "type": "Arres",
        "path": "data/poland/arres/wroclaw",
        "color": "blue"
      },
      {
        "type": "K-PACK",
        "path": "data/poland/kpack/wroclaw",
        "color": "blue"
      }
    ]
  },
  {
    "name": "Stalowa Wola, Poland",
    "lat": 50.5820,
    "lng": 22.0552,
    "links": [
      {
        "type": "K-PACK",
        "path": "data/poland/kpack/stalowawola",
        "color": "blue"
      }
    ]
  },
  {
    "name": "Szczecin, Poland",
    "lat": 53.4285,
    "lng": 14.5528,
    "links": [
      {
        "type": "K-PACK",
        "path": "data/poland/kpack/szczecin",
        "color": "blue"
      }
    ]
  }
]

