[
{
  "name": "Gardena, CA",
  "lat": 33.89361,
  "lng": -118.30778,
  "links": [
    {
      "type": "HI-TEK",
      "path": "data/usa/hitek/gardena",
      "color": "blue"
    }
  ]
},
  {
    "name": "Los Angeles, CA",
    "lat": 34.0536,
    "lng": -118.2430,
    "links": [
      {
        "type": "HI-TEK",
        "path": "data/usa/hitek/los_angeles",
        "color": "blue"
      }
    ]
  },
  {
    "name": "Long Beach, CA",
    "lat": 33.7705,
    "lng": -118.1937,
    "links": [
      {
        "type": "HI-TEK",
        "path": "data/usa/hitek/long_beach",
        "color": "blue"
      }
    ]
  },
  {
    "name": "Torrance, CA",
    "lat": 33.8408,
    "lng": -118.3454,
    "links": [
      {
        "type": "HI-TEK",
        "path": "data/usa/hitek/torrance",
        "color": "blue"
      }
    ]
  },
  {
    "name": "Paramount, CA",
    "lat": 33.8895,
    "lng": -118.1598,
    "links": [
      {
        "type": "HI-TEK",
        "path": "data/usa/hitek/paramount",
        "color": "blue"
      }
    ]
  },
  {
    "name": "Monterey Park, CA",
    "lat": 34.0625,
    "lng": -118.1228,
    "links": [
      {
        "type": "HI-TEK",
        "path": "data/usa/hitek/monterey_park",
        "color": "blue"
      }
    ]
  },
  {
    "name": "Alhambra, CA",
    "lat": 34.0953,
    "lng": -118.1270,
    "links": [
      {
        "type": "HI-TEK",
        "path": "data/usa/hitek/alhambra",
        "color": "blue"
      }
    ]
  },
  {
    "name": "Garden Grove, CA",
    "lat": 33.7743,
    "lng": -117.9370,
    "links": [
      {
        "type": "HI-TEK",
        "path": "data/usa/hitek/garden_grove",
        "color": "blue"
      }
    ]
  },
  {
    "name": "Irvine, CA",
    "lat": 33.6846,
    "lng": -117.8265,
    "links": [
      {
        "type": "HI-TEK",
        "path": "data/usa/hitek/irvine",
        "color": "blue"
      }
    ]
  },
  {
    "name": "Burbank, CA",
    "lat": 34.1808,
    "lng": -118.3089,
    "links": [
      {
        "type": "HI-TEK",
        "path": "data/usa/hitek/burbank",
        "color": "blue"
      }
    ]
  },
  {
    "name": "Glendale, CA",
    "lat": 34.1425,
    "lng": -118.2551,
    "links": [
      {
        "type": "HI-TEK",
        "path": "data/usa/hitek/glendale",
        "color": "blue"
      }
    ]
  },
  {
    "name": "Santa Clarita, CA",
    "lat": 34.3917,
    "lng": -118.5426,
    "links": [
      {
        "type": "HI-TEK",
        "path": "data/usa/hitek/santa_clarita",
        "color": "blue"
      }
    ]
  },
  {
    "name": "Rancho Cucamonga, CA",
    "lat": 34.1064,
    "lng": -117.5931,
    "links": [
      {
        "type": "HI-TEK",
        "path": "data/usa/hitek/rancho_cucamonga",
        "color": "blue"
      }
    ]
  },
  {
    "name": "Thousand Oaks, CA",
    "lat": 34.1706,
    "lng": -118.8376,
    "links": [
      {
        "type": "HI-TEK",
        "path": "data/usa/hitek/thousand_oaks",
        "color": "blue"
      }
    ]
  },
{
  "name": "San Diego, CA",
  "lat": 32.7157,
  "lng": -117.1611,
  "links": [
    {
      "type": "HI-TEK",
      "path": "data/usa/hitek/san_diego",
      "color": "blue"
    }
  ]
},
  {
    "name": "Chula Vista, CA",
    "lat": 32.6401,
    "lng": -117.0841,
    "links": [
      {
        "type": "HI-TEK",
        "path": "data/usa/hitek/chula_vista",
        "color": "blue"
      }
    ]
  },
  {
    "name": "El Centro, CA",
    "lat": 32.7920,
    "lng": -115.5634,
    "links": [
      {
        "type": "HI-TEK",
        "path": "data/usa/hitek/el_centro",
        "color": "blue"
      }
    ]
  },
  {
    "name": "Bakersfield, CA",
    "lat": 35.3733,
    "lng": -119.0187,
    "links": [
      {
        "type": "HI-TEK",
        "path": "data/usa/hitek/bakersfield",
        "color": "blue"
      }
    ]
  },
    {
    "name": "Santa Barbara, CA",
    "lat": 34.4208,
    "lng": -119.6982,
    "links": [
      {
        "type": "HI-TEK",
        "path": "data/usa/hitek/santa_barbara",
        "color": "blue"
      }
    ]
  },
  {
    "name": "Fresno, CA",
    "lat": 36.7378,
    "lng": -119.7871,
    "links": [
      {
        "type": "HI-TEK",
        "path": "data/usa/hitek/fresno",
        "color": "blue"
      }
    ]
  },
  {
    "name": "San Jose, CA",
    "lat": 37.3382,
    "lng": -121.8863,
    "links": [
      {
        "type": "HI-TEK",
        "path": "data/usa/hitek/san_jose",
        "color": "blue"
      }
    ]
  },
  {
    "name": "San Francisco, CA",
    "lat": 37.7749,
    "lng": -122.4194,
    "links": [
      {
        "type": "HI-TEK",
        "path": "data/usa/hitek/san_francisco",
        "color": "blue"
      }
    ]
  },
  {
    "name": "Sacramento, CA",
    "lat": 38.5816,
    "lng": -121.4944,
    "links": [
      {
        "type": "HI-TEK",
        "path": "data/usa/hitek/sacramento",
        "color": "blue"
      }
    ]
  },
{
  "name": "Las Vegas, NV",
  "lat": 36.1699,
  "lng": -115.1398,
  "links": [
    {
      "type": "HI-TEK",
      "path": "data/usa/hitek/las_vegas",
      "color": "blue"
    }
  ]
},
{
  "name": "Reno, NV",
  "lat": 39.5296,
  "lng": -119.8138,
  "links": [
    {
      "type": "HI-TEK",
      "path": "data/usa/hitek/reno",
      "color": "blue"
    }
  ]
},
  {
    "name": "Phoenix, AZ",
    "lat": 33.4484,
    "lng": -112.0740,
    "links": [
      {
        "type": "HI-TEK",
        "path": "data/usa/hitek/phoenix",
        "color": "blue"
      }
    ]
  },
  {
    "name": "Tucson, AZ",
    "lat": 32.2226,
    "lng": -110.9747,
    "links": [
      {
        "type": "HI-TEK",
        "path": "data/usa/hitek/tucson",
        "color": "blue"
      }
    ]
  },
  {
    "name": "Portland, OR",
    "lat": 45.5152,
    "lng": -122.6784,
    "links": [
      {
        "type": "HI-TEK",
        "path": "data/usa/hitek/portland",
        "color": "blue"
      }
    ]
  },
  {
    "name": "La pine, OR",
    "lat": 43.67917,
    "lng": -121.49583,
    "links": [
      {
        "type": "HI-TEK",
        "path": "data/usa/hitek/la_pine",
        "color": "blue"
      }
    ]
  },
  {
    "name": "Seattle, WA",
    "lat": 47.6062,
    "lng": -122.3321,
    "links": [
      {
        "type": "HI-TEK",
        "path": "data/usa/hitek/seattle",
        "color": "blue"
      }
    ]
  },
  {
    "name": "Omaha, NE",
      "lat": 41.2565,
      "lng": -95.9345,
    "links": [
      {
        "type": "HI-TEK",
        "path": "data/usa/hitek/omaha",
        "color": "blue"
      },
      {
        "type": "SOS",
        "path": "data/usa/sos/omaha",
        "color": "blue"
      }
    ]
  },
  {
    "name": "Lincoln, NE",
    "lat": 40.8136,
    "lng": -96.7075,
    "links": [
      {
        "type": "HI-TEK",
        "path": "data/usa/hitek/lincoln",
        "color": "blue"
      },
      {
        "type": "SOS",
        "path": "data/usa/sos/lincoln",
        "color": "blue"
      }
    ]
  },
  {
    "name": "Salt Lake City, UT",
    "lat": 40.7608,
    "lng": -111.8910,
    "links": [
      {
        "type": "HI-TEK",
        "path": "data/usa/hitek/salt_lake_city",
        "color": "blue"
      }
    ]
  },
  {
    "name": "Denver, CO",
    "lat": 39.7392,
    "lng": -104.9903,
    "links": [
      {
        "type": "HI-TEK",
        "path": "data/usa/hitek/denver",
        "color": "blue"
      }
    ]
  },
  {
    "name": "Albuquerque, NM",
    "lat": 35.0844,
    "lng": -106.6504,
    "links": [
      {
        "type": "HI-TEK",
        "path": "data/usa/hitek/albuquerque",
        "color": "blue"
      }
    ]
  },
  {
    "name": "El Paso, TX",
    "lat": 31.75917,
    "lng": -106.48861,
    "links": [
      {
        "type": "HI-TEK",
        "path": "data/usa/hitek/el_paso",
        "color": "blue"
      }
    ]
  },
  {
    "name": "Dallas, TX",
    "lat": 32.776236,
    "lng": -96.796838,
    "links": [
      {
        "type": "HI-TEK",
        "path": "data/usa/hitek/dallas",
        "color": "blue"
      },
      {
        "type": "SOS",
        "path": "data/usa/sos/dallas",
        "color": "blue"
      }
    ]
  },
  {
    "name": "Houston, TX",
    "lat": 29.7604,
    "lng": -95.3698,
    "links": [
      {
        "type": "HI-TEK",
        "path": "data/usa/hitek/houston",
        "color": "blue"
      },
      {
        "type": "SOS",
        "path": "data/usa/sos/houston",
        "color": "blue"
      }
    ]
  },
  {
    "name": "Austin, TX",
    "lat": 30.266666,
    "lng": -97.733330,
    "links": [
      {
        "type": "HI-TEK",
        "path": "data/usa/hitek/austin",
        "color": "blue"
      },
      {
        "type": "SOS",
        "path": "data/usa/sos/austin",
        "color": "blue"
      }
    ]
  },
  {
    "name": "College Station, TX",
    "lat": 30.601389,
    "lng": -96.314445,
    "links": [
      {
        "type": "HI-TEK",
        "path": "data/usa/hitek/college_station",
        "color": "blue"
      },
      {
        "type": "SOS",
        "path": "data/usa/sos/college_station",
        "color": "blue"
      }
    ]
  },
  {
    "name": "San Antonio, TX",
    "lat": 29.4241,
    "lng": -98.4936,
    "links": [
      {
        "type": "HI-TEK",
        "path": "data/usa/hitek/san_antonio",
        "color": "blue"
      }
    ]
  },
  {
    "name": "Corpus Christi, TX",
    "lat": 27.8006,
    "lng": -97.3964,
    "links": [
      {
        "type": "HI-TEK",
        "path": "data/usa/hitek/corpus_christi",
        "color": "blue"
      }
    ]
  },
  {
    "name": "Mission, TX",
    "lat": 26.2159,
    "lng": -98.3253,
    "links": [
      {
        "type": "HI-TEK",
        "path": "data/usa/hitek/mission",
        "color": "blue"
      }
    ]
  },
  {
    "name": "Oklahoma City, OK",
    "lat": 35.4676,
    "lng": -97.5164,
    "links": [
      {
        "type": "HI-TEK",
        "path": "data/usa/hitek/oklahoma_city",
        "color": "blue"
      }
    ]
  },
  {
    "name": "Kansas City, KS",
    "lat": 39.1142,
    "lng": -94.6275,
    "links": [
      {
        "type": "HI-TEK",
        "path": "data/usa/hitek/kansas_city",
        "color": "blue"
      },
      {
        "type": "SOS",
        "path": "data/usa/sos/kansas_city",
        "color": "blue"
      }
    ]
  },
  {
    "name": "New Orleans, LA",
    "lat": 29.96667,
    "lng": -90.05,
    "links": [
      {
        "type": "HI-TEK",
        "path": "data/usa/hitek/new_orleans",
        "color": "blue"
      },
      {
        "type": "SOS",
        "path": "data/usa/sos/new_orleans",
        "color": "blue"
      }
    ]
  },
  {
    "name": "Baton Rouge, LA",
    "lat": 30.4515,
    "lng": -91.1871,
    "links": [
      {
        "type": "HI-TEK",
        "path": "data/usa/hitek/baton_rouge",
        "color": "blue"
      }
    ]
  },
  {
    "name": "Chicago, IL",
    "lat": 41.8781,
    "lng": -87.6298,
    "links": [
      {
        "type": "HI-TEK",
        "path": "data/usa/hitek/chicago",
        "color": "blue"
      },
      {
        "type": "SOS",
        "path": "data/usa/sos/chicago",
        "color": "blue"
      }
    ]
  },
  {
    "name": "Champaign, IL",
    "lat": 40.116421,
    "lng": -88.243385,
    "links": [
      {
        "type": "SOS",
        "path": "data/usa/sos/champaign",
        "color": "blue"
      }
    ]
  },
  {
    "name": "Louisville, KY",
    "lat": 38.2527,
    "lng": -85.7585,
    "links": [
      {
        "type": "HI-TEK",
        "path": "data/usa/hitek/louisville",
        "color": "blue"
      },
      {
        "type": "SOS",
        "path": "data/usa/sos/louisville",
        "color": "blue"
      }
    ]
  },
  {
    "name": "Lexington, KY",
    "lat": 38.0406,
    "lng": -84.5037,
    "links": [
      {
        "type": "HI-TEK",
        "path": "data/usa/hitek/lexington",
        "color": "blue"
      },
      {
        "type": "SOS",
        "path": "data/usa/sos/lexington",
        "color": "blue"
      }
    ]
  },
  {
    "name": "St. Louis, MO",
    "lat": 38.6270,
    "lng": -90.1994,
    "links": [
     {
        "type": "HI-TEK",
        "path": "data/usa/hitek/st_louis",
        "color": "blue"
      },
     {
        "type": "SOS",
        "path": "data/usa/sos/st_louis",
        "color": "blue"
      }
    ]
  },
  {
    "name": "Columbia, MO",
    "lat": 39.9511,
    "lng": -92.3341,
    "links": [
     {
        "type": "HI-TEK",
        "path": "data/usa/hitek/columbiaMO",
        "color": "blue"
      },
     {
        "type": "SOS",
        "path": "data/usa/sos/columbiaMO",
        "color": "blue"
      }
    ]
  },
  {
    "name": "Lafayette, IN",
    "lat": 40.4138,
    "lng": -86.8753,
    "links": [
      {
        "type": "HI-TEK",
        "path": "data/usa/hitek/lafayetteIN",
        "color": "blue"
      },
      {
        "type": "SOS",
        "path": "data/usa/sos/lafayetteIN",
        "color": "blue"
      }
    ]
  },
  {
    "name": "Indianapolis, IN",
    "lat": 39.7684,
    "lng": -86.1580,
    "links": [
     {
        "type": "HI-TEK",
        "path": "data/usa/hitek/indianapolis",
        "color": "blue"
      },
     {
        "type": "SOS",
        "path": "data/usa/sos/indianapolis",
        "color": "blue"
      }
    ]
  },
  {
    "name": "Bloomington, IN",
    "lat": 39.1653,
    "lng": -86.5264,
    "links": [
      {
        "type": "HI-TEK",
        "path": "data/usa/hitek/bloomington",
        "color": "blue"
      },
      {
        "type": "SOS",
        "path": "data/usa/sos/bloomington",
        "color": "blue"
      }
    ]
  },
  {
    "name": "Cincinnati, OH",
    "lat": 39.1031,
    "lng": -84.5120,
    "links": [
      {
        "type": "HI-TEK",
        "path": "data/usa/hitek/cincinnati",
        "color": "blue"
      },
      {
        "type": "SOS",
        "path": "data/usa/sos/cincinnati",
        "color": "blue"
      }
    ]
  },
  {
    "name": "Lafayette, OH",
    "lat": 40.75889,
    "lng": -83.95000,
    "links": [
      {
        "type": "HI-TEK",
        "path": "data/usa/hitek/lafayetteOH",
        "color": "blue"
      }
    ]
  },
  {
    "name": "Columbus, OH",
    "lat": 39.9612,
    "lng": -82.9988,
    "links": [
      {
        "type": "HI-TEK",
        "path": "data/usa/hitek/columbusOH",
        "color": "blue"
      },
      {
        "type": "SOS",
        "path": "data/usa/sos/columbusOH",
        "color": "blue"
      }
    ]
  },
  {
    "name": "Dayton, OH",
    "lat": 39.758949,
    "lng": -84.191605,
    "links": [
      {
        "type": "SOS",
        "path": "data/usa/sos/dayton",
        "color": "blue"
      }
    ]
  },
  {
    "name": "Cleveland, OH",
    "lat": 41.505493,
    "lng": -81.681290,
    "links": [
      {
        "type": "SOS",
        "path": "data/usa/sos/cleveland",
        "color": "blue"
      }
    ]
  },
  {
    "name": "Akron, OH",
    "lat": 41.081445,
    "lng": -81.519005,
    "links": [
      {
        "type": "SOS",
        "path": "data/usa/sos/akron",
        "color": "blue"
      }
    ]
  },
  {
    "name": "Troy, MI",
    "lat": 42.6064,
    "lng": -83.1496,
    "links": [
      {
        "type": "HI-TEK",
        "path": "data/usa/hitek/troy",
        "color": "blue"
      },
      {
        "type": "SOS",
        "path": "data/usa/sos/troy",
        "color": "blue"
      }
    ]
  },
  {
    "name": "Detroit, MI",
    "lat": 42.3314,
    "lng": -83.0458,
    "links": [
      {
        "type": "HI-TEK",
        "path": "data/usa/hitek/detroit",
        "color": "blue"
      },
      {
        "type": "SOS",
        "path": "data/usa/sos/detroit",
        "color": "blue"
      }
    ]
  },
  {
    "name": "Ann Arbor, MI",
    "lat": 42.2808,
    "lng": -83.7430,
    "links": [
      {
        "type": "HI-TEK",
        "path": "data/usa/hitek/ann_arbor",
        "color": "blue"
      },
      {
        "type": "SOS",
        "path": "data/usa/sos/ann_arbor",
        "color": "blue"
      }
    ]
  },
  {
    "name": "Kalamazoo, MI",
    "lat": 42.299152,
    "lng": -85.591736,
    "links": [
      {
        "type": "SOS",
        "path": "data/usa/sos/kalamazoo",
        "color": "blue"
      }
    ]
  },
  {
    "name": "Lansing, MI",
    "lat": 42.732536,
    "lng": -84.555534,
    "links": [
      {
        "type": "SOS",
        "path": "data/usa/sos/lansing",
        "color": "blue"
      }
    ]
  },
  {
    "name": "Holland, MI",
    "lat": 42.7875235,
    "lng": -86.1089301,
    "links": [
      {
        "type": "SOS",
        "path": "data/usa/sos/holland",
        "color": "blue"
      }
    ]
  },
  {
    "name": "Midland, MI",
    "lat": 43.618183,
    "lng": -84.234238,
    "links": [
      {
        "type": "SOS",
        "path": "data/usa/sos/midland",
        "color": "blue"
      }
    ]
  },
  {
    "name": "Des Moines, IA",
    "lat": 41.5868,
    "lng": -93.6250,
    "links": [
      {
        "type": "HI-TEK",
        "path": "data/usa/hitek/des_moines",
        "color": "blue"
      },
      {
        "type": "SOS",
        "path": "data/usa/sos/des_moines",
        "color": "blue"
      }
    ]
  },
  {
    "name": "Iowa City, IA",
    "lat": 41.6611,
    "lng": -91.5302,
    "links": [
      {
        "type": "HI-TEK",
        "path": "data/usa/hitek/iowa_city",
        "color": "blue"
      },
      {
        "type": "SOS",
        "path": "data/usa/sos/iowa_city",
        "color": "blue"
      }
    ]
  },
  {
    "name": "Milwaukee, WI",
    "lat": 43.0389,
    "lng": -87.9065,
    "links": [
      {
        "type": "HI-TEK",
        "path": "data/usa/hitek/milwaukee",
        "color": "blue"
      },
      {
        "type": "SOS",
        "path": "data/usa/sos/milwaukee",
        "color": "blue"
      }
    ]
  },
  {
    "name": "Madison, WI",
    "lat": 43.0731,
    "lng": -89.4012,
    "links": [
      {
        "type": "HI-TEK",
        "path": "data/usa/hitek/madison",
        "color": "blue"
      },
      {
        "type": "SOS",
        "path": "data/usa/sos/madison",
        "color": "blue"
      }
    ]
  },
  {
    "name": "St. Paul, MN",
    "lat": 44.9537,
    "lng": -93.0900,
    "links": [
      {
        "type": "HI-TEK",
        "path": "data/usa/hitek/st_paul",
        "color": "blue"
      },
      {
        "type": "SOS",
        "path": "data/usa/sos/st_paul",
        "color": "blue"
      }
    ]
  },
  {
    "name": "Minneapolis, MN",
    "lat": 44.9778,
    "lng": -93.2650,
    "links": [
      {
        "type": "HI-TEK",
        "path": "data/usa/hitek/minneapolis",
        "color": "blue"
      },
      {
        "type": "SOS",
        "path": "data/usa/sos/minneapolis",
        "color": "blue"
      }
    ]
  },
  {
    "name": "Rochester, MN",
    "lat": 44.012122,
    "lng": -92.480198,
    "links": [
      {
        "type": "SOS",
        "path": "data/usa/sos/rochester",
        "color": "blue"
      }
    ]
  },
  {
    "name": "Atlanta, GA",
    "lat": 33.749,
    "lng": -84.388,
    "links": [
      {
        "type": "HI-TEK",
        "path": "data/usa/hitek/atlanta",
        "color": "blue"
      },
      {
        "type": "SOS",
        "path": "data/usa/sos/atlanta",
        "color": "blue"
      }
    ]
  },
  {
    "name": "LaGrange, GA",
    "lat": 33.0362,
    "lng": -85.0319,
    "links": [
      {
        "type": "SOS",
        "path": "data/usa/sos/lagrange",
        "color": "blue"
      }
    ]
  },
  {
    "name": "Cartersville, GA",
    "lat": 34.166080,
    "lng": -84.800613,
    "links": [
      {
        "type": "SOS",
        "path": "data/usa/sos/cartersville",
        "color": "blue"
      }
    ]
  },
{
  "name": "Newnan, GA",
  "lat": 33.3807,
  "lng": -84.7997,
  "links": [
    {
      "type": "SOS",
      "path": "data/usa/sos/newnan",
      "color": "blue"
    }
  ]
},
  {
    "name": "Savannah, GA",
    "lat": 32.0835,
    "lng": -81.0998,
    "links": [
      {
        "type": "SOS",
        "path": "data/usa/sos/savannah",
        "color": "blue"
      }
    ]
  },
  {
    "name": "Montgomery, AL",
    "lat": 32.3792,
    "lng": -86.3077,
    "links": [
      {
        "type": "HI-TEK",
        "path": "data/usa/hitek/montgomery",
        "color": "blue"
      },
      {
        "type": "SOS",
        "path": "data/usa/sos/montgomery",
        "color": "blue"
      }
    ]
  },
  {
    "name": "Auburn, AL",
    "lat": 32.59778,
    "lng": -85.48083,
    "links": [
      {
        "type": "HI-TEK",
        "path": "data/usa/hitek/auburn",
        "color": "blue"
      },
      {
        "type": "SOS",
        "path": "data/usa/sos/auburn",
        "color": "blue"
      }
    ]
  },
  {
    "name": "Birmingham, AL",
    "lat": 33.5186,
    "lng": -86.8104,
    "links": [
      {
        "type": "SOS",
        "path": "data/usa/sos/birmingham",
        "color": "blue"
      }
    ]
  },
  {
    "name": "Huntsville, AL",
    "lat": 34.7304,
    "lng": -86.5861,
    "links": [
      {
        "type": "SOS",
        "path": "data/usa/sos/huntsville",
        "color": "blue"
      }
    ]
  },
  {
    "name": "Mobile, AL",
    "lat": 30.6954,
    "lng": -88.1399,
    "links": [
      {
        "type": "SOS",
        "path": "data/usa/sos/mobile",
        "color": "blue"
      }
    ]
  },
  {
    "name": "Nashville, TN",
    "lat": 36.174465,
    "lng": -86.76796,
    "links": [
      {
        "type": "HI-TEK",
        "path": "data/usa/hitek/nashville",
        "color": "blue"
      },
      {
        "type": "SOS",
        "path": "data/usa/sos/nashville",
        "color": "blue"
      }
    ]
  },
  {
    "name": "Knoxville, TN",
    "lat": 35.964668,
    "lng": -83.926453,
    "links": [
      {
        "type": "HI-TEK",
        "path": "data/usa/hitek/knoxville",
        "color": "blue"
      },
      {
        "type": "SOS",
        "path": "data/usa/sos/knoxville",
        "color": "blue"
      }
    ]
  },
  {
    "name": "Memphis, TN",
    "lat": 35.1175,
    "lng": -89.971107,
    "links": [
      {
        "type": "HI-TEK",
        "path": "data/usa/hitek/memphis",
        "color": "blue"
      },
      {
        "type": "SOS",
        "path": "data/usa/sos/memphis",
        "color": "blue"
      }
    ]
  },
  {
    "name": "Jackson, MS",
    "lat": 32.2988,
    "lng": -90.1848,
    "links": [
      {
        "type": "HI-TEK",
        "path": "data/usa/hitek/jackson",
        "color": "blue"
      },
      {
        "type": "SOS",
        "path": "data/usa/sos/jackson",
        "color": "blue"
      }
    ]
  },
  {
    "name": "Biloxi, MS",
    "lat": 30.3953972,
    "lng": -88.8869194,
    "links": [
      {
        "type": "SOS",
        "path": "data/usa/sos/biloxi",
        "color": "blue"
      }
    ]
  },
  {
    "name": "Little Rock, AR",
    "lat": 34.7465,
    "lng": -92.2896,
    "links": [
      {
        "type": "HI-TEK",
        "path": "data/usa/hitek/littlerock",
        "color": "blue"
      },
      {
        "type": "SOS",
        "path": "data/usa/sos/littlerock",
        "color": "blue"
      }
    ]
  },
  {
    "name": "Columbia, SC",
    "lat": 34.0004,
    "lng": -81.0348,
    "links": [
      {
        "type": "HI-TEK",
        "path": "data/usa/hitek/columbiaSC",
        "color": "blue"
      },
      {
        "type": "SOS",
        "path": "data/usa/sos/columbiaSC",
        "color": "blue"
      }
    ]
  },
  {
    "name": "Charleston, SC",
    "lat": 32.776750,
    "lng": -79.930800,
    "links": [
      {
        "type": "SOS",
        "path": "data/usa/sos/charleston",
        "color": "blue"
      }
    ]
  },
  {
    "name": "Charlotte, NC",
    "lat": 35.2271,
    "lng": -80.8431,
    "links": [
      {
        "type": "HI-TEK",
        "path": "data/usa/hitek/charlotte",
        "color": "blue"
      },
      {
        "type": "SOS",
        "path": "data/usa/sos/charlotte",
        "color": "blue"
      }
    ]
  },
    {
    "name": "Greensboro, NC",
    "lat": 36.044659,
    "lng": -79.766235,
    "links": [
      {
        "type": "SOS",
        "path": "data/usa/sos/greensboro",
        "color": "blue"
      }
    ]
  },
{
  "name": "Raleigh, NC",
  "lat": 35.7796,
  "lng": -78.6382,
  "links": [
    {
      "type": "SOS",
      "path": "data/usa/sos/raleigh",
      "color": "blue"
    }
  ]
},
    {
    "name": "Durham, NC",
    "lat": 35.9940,
    "lng": -78.8986,
    "links": [
      {
        "type": "HI-TEK",
        "path": "data/usa/hitek/durham",
        "color": "blue"
      }
    ]
  },
{
  "name": "Fayetteville, NC",
  "lat": 35.0527,
  "lng": -78.8784,
  "links": [
    {
      "type": "SOS",
      "path": "data/usa/sos/fayetteville",
      "color": "blue"
    }
  ]
},
  {
    "name": "Wilmington, NC",
    "lat": 34.23722,
    "lng": -77.94667,
    "links": [
      {
        "type": "SOS",
        "path": "data/usa/sos/wilmington",
        "color": "blue"
      }
    ]
  },
  {
    "name": "Fairfax, VA",
    "lat": 38.8462,
    "lng": -77.3064,
    "links": [
      {
        "type": "HI-TEK",
        "path": "data/usa/hitek/fairfax",
        "color": "blue"
      },
      {
        "type": "keyword",
        "path": "data/usa/keyword/alexandria-annandale-arlington-centreville-fairfax-leesburg-mclean-springfield-vienna",
        "color": "blue"
      }
    ]
  },
  {
    "name": "Alexandria, VA",
    "lat": 38.8048,
    "lng": -77.0469,
    "links": [
      {
        "type": "keyword",
        "path": "data/usa/keyword/alexandria-annandale-arlington-centreville-fairfax-leesburg-mclean-springfield-vienna",
        "color": "blue"
      }
    ]
  },
  {
    "name": "Annandale, VA",
    "lat": 38.8304,
    "lng": -77.1964,
    "links": [
      {
        "type": "keyword",
        "path": "data/usa/keyword/alexandria-annandale-arlington-centreville-fairfax-leesburg-mclean-springfield-vienna",
        "color": "blue"
      }
    ]
  },
  {
    "name": "Arlington, VA",
    "lat": 38.8816,
    "lng": -77.0910,
    "links": [
      {
        "type": "keyword",
        "path": "data/usa/keyword/alexandria-annandale-arlington-centreville-fairfax-leesburg-mclean-springfield-vienna",
        "color": "blue"
      }
    ]
  },
  {
    "name": "Centreville, VA",
    "lat": 38.8404,
    "lng": -77.4289,
    "links": [
      {
        "type": "keyword",
        "path": "data/usa/keyword/alexandria-annandale-arlington-centreville-fairfax-leesburg-mclean-springfield-vienna",
        "color": "blue"
      }
    ]
  },
  {
    "name": "Leesburg, VA",
    "lat": 39.1157,
    "lng": -77.5636,
    "links": [
      {
        "type": "keyword",
        "path": "data/usa/keyword/alexandria-annandale-arlington-centreville-fairfax-leesburg-mclean-springfield-vienna",
        "color": "blue"
      }
    ]
  },
  {
    "name": "McLean, VA",
    "lat": 38.9339,
    "lng": -77.1773,
    "links": [
      {
        "type": "keyword",
        "path": "data/usa/keyword/alexandria-annandale-arlington-centreville-fairfax-leesburg-mclean-springfield-vienna",
        "color": "blue"
      }
    ]
  },
  {
    "name": "Springfield, VA",
    "lat": 38.7893,
    "lng": -77.1872,
    "links": [
      {
        "type": "keyword",
        "path": "data/usa/keyword/alexandria-annandale-arlington-centreville-fairfax-leesburg-mclean-springfield-vienna",
        "color": "blue"
      }
    ]
  },
  {
    "name": "Vienna, VA",
    "lat": 38.9012,
    "lng": -77.2653,
    "links": [
      {
        "type": "keyword",
        "path": "data/usa/keyword/alexandria-annandale-arlington-centreville-fairfax-leesburg-mclean-springfield-vienna",
        "color": "blue"
      }
    ]
  },
  {
    "name": "Manassas, VA",
    "lat": 38.7509,
    "lng": -77.4750,
    "links": [
      {
        "type": "keyword",
        "path": "data/usa/keyword/manassas",
        "color": "blue"
      }
    ]
  },
  {
    "name": "Callao, VA",
    "lat": 37.9637,
    "lng": -76.5616,
    "links": [
      {
        "type": "keyword",
        "path": "data/usa/keyword/callao",
        "color": "blue"
      }
    ]
  },
  {
    "name": "Alberta, VA",
    "lat": 36.8515,
    "lng": -77.8883,
    "links": [
      {
        "type": "keyword",
        "path": "data/usa/keyword/alberta-amherst-bowling_green-charlottesville-fredericksburg-hanover-harrisonburg-la_crosse-lawrenceville-lynchburg-norfolk-petersburg-portsmouth-richmond-rockville-stafford-victoria-virginia_beach",
        "color": "blue"
      }
    ]
  },
  {
    "name": "Amherst, VA",
    "lat": 37.5854,
    "lng": -79.0517,
    "links": [
      {
        "type": "keyword",
        "path": "data/usa/keyword/alberta-amherst-bowling_green-charlottesville-fredericksburg-hanover-harrisonburg-la_crosse-lawrenceville-lynchburg-norfolk-petersburg-portsmouth-richmond-rockville-stafford-victoria-virginia_beach",
        "color": "blue"
      }
    ]
  },
  {
    "name": "Bowling Green, VA",
    "lat": 38.0498,
    "lng": -77.3464,
    "links": [
      {
        "type": "keyword",
        "path": "data/usa/keyword/alberta-amherst-bowling_green-charlottesville-fredericksburg-hanover-harrisonburg-la_crosse-lawrenceville-lynchburg-norfolk-petersburg-portsmouth-richmond-rockville-stafford-victoria-virginia_beach",
        "color": "blue"
      }
    ]
  },
  {
    "name": "Charlottesville, VA",
    "lat": 38.0293,
    "lng": -78.4767,
    "links": [
      {
        "type": "keyword",
        "path": "data/usa/keyword/alberta-amherst-bowling_green-charlottesville-fredericksburg-hanover-harrisonburg-la_crosse-lawrenceville-lynchburg-norfolk-petersburg-portsmouth-richmond-rockville-stafford-victoria-virginia_beach",
        "color": "blue"
      }
    ]
  },
  {
    "name": "Fredericksburg, VA",
    "lat": 38.3032,
    "lng": -77.4605,
    "links": [
      {
        "type": "keyword",
        "path": "data/usa/keyword/alberta-amherst-bowling_green-charlottesville-fredericksburg-hanover-harrisonburg-la_crosse-lawrenceville-lynchburg-norfolk-petersburg-portsmouth-richmond-rockville-stafford-victoria-virginia_beach",
        "color": "blue"
      }
    ]
  },
  {
    "name": "Hanover, VA",
    "lat": 37.7674,
    "lng": -77.3703,
    "links": [
      {
        "type": "keyword",
        "path": "data/usa/keyword/alberta-amherst-bowling_green-charlottesville-fredericksburg-hanover-harrisonburg-la_crosse-lawrenceville-lynchburg-norfolk-petersburg-portsmouth-richmond-rockville-stafford-victoria-virginia_beach",
        "color": "blue"
      }
    ]
  },
  {
    "name": "Harrisonburg, VA",
    "lat": 38.4496,
    "lng": -78.8689,
    "links": [
      {
        "type": "keyword",
        "path": "data/usa/keyword/alberta-amherst-bowling_green-charlottesville-fredericksburg-hanover-harrisonburg-la_crosse-lawrenceville-lynchburg-norfolk-petersburg-portsmouth-richmond-rockville-stafford-victoria-virginia_beach",
        "color": "blue"
      }
    ]
  },
  {
    "name": "La Crosse, VA",
    "lat": 36.6963,
    "lng": -78.0925,
    "links": [
      {
        "type": "keyword",
        "path": "data/usa/keyword/alberta-amherst-bowling_green-charlottesville-fredericksburg-hanover-harrisonburg-la_crosse-lawrenceville-lynchburg-norfolk-petersburg-portsmouth-richmond-rockville-stafford-victoria-virginia_beach",
        "color": "blue"
      }
    ]
  },
  {
    "name": "Lawrenceville, VA",
    "lat": 36.7579,
    "lng": -77.8469,
    "links": [
      {
        "type": "keyword",
        "path": "data/usa/keyword/alberta-amherst-bowling_green-charlottesville-fredericksburg-hanover-harrisonburg-la_crosse-lawrenceville-lynchburg-norfolk-petersburg-portsmouth-richmond-rockville-stafford-victoria-virginia_beach",
        "color": "blue"
      }
    ]
  },
  {
    "name": "Lynchburg, VA",
    "lat": 37.4138,
    "lng": -79.1423,
    "links": [
      {
        "type": "keyword",
        "path": "data/usa/keyword/alberta-amherst-bowling_green-charlottesville-fredericksburg-hanover-harrisonburg-la_crosse-lawrenceville-lynchburg-norfolk-petersburg-portsmouth-richmond-rockville-stafford-victoria-virginia_beach",
        "color": "blue"
      }
    ]
  },
  {
    "name": "Norfolk, VA",
    "lat": 36.8508,
    "lng": -76.2859,
    "links": [
      {
        "type": "keyword",
        "path": "data/usa/keyword/alberta-amherst-bowling_green-charlottesville-fredericksburg-hanover-harrisonburg-la_crosse-lawrenceville-lynchburg-norfolk-petersburg-portsmouth-richmond-rockville-stafford-victoria-virginia_beach",
        "color": "blue"
      }
    ]
  },
  {
    "name": "Petersburg, VA",
    "lat": 37.2279,
    "lng": -77.4019,
    "links": [
      {
        "type": "keyword",
        "path": "data/usa/keyword/alberta-amherst-bowling_green-charlottesville-fredericksburg-hanover-harrisonburg-la_crosse-lawrenceville-lynchburg-norfolk-petersburg-portsmouth-richmond-rockville-stafford-victoria-virginia_beach",
        "color": "blue"
      }
    ]
  },
  {
    "name": "Portsmouth, VA",
    "lat": 36.8354,
    "lng": -76.2983,
    "links": [
      {
        "type": "keyword",
        "path": "data/usa/keyword/alberta-amherst-bowling_green-charlottesville-fredericksburg-hanover-harrisonburg-la_crosse-lawrenceville-lynchburg-norfolk-petersburg-portsmouth-richmond-rockville-stafford-victoria-virginia_beach",
        "color": "blue"
      }
    ]
  },
  {
    "name": "Richmond, VA",
    "lat": 37.5407,
    "lng": -77.4360,
    "links": [
      {
        "type": "keyword",
        "path": "data/usa/keyword/alberta-amherst-bowling_green-charlottesville-fredericksburg-hanover-harrisonburg-la_crosse-lawrenceville-lynchburg-norfolk-petersburg-portsmouth-richmond-rockville-stafford-victoria-virginia_beach",
        "color": "blue"
      }
    ]
  },
  {
    "name": "Rockville, VA",
    "lat": 37.7154,
    "lng": -77.6517,
    "links": [
      {
        "type": "keyword",
        "path": "data/usa/keyword/alberta-amherst-bowling_green-charlottesville-fredericksburg-hanover-harrisonburg-la_crosse-lawrenceville-lynchburg-norfolk-petersburg-portsmouth-richmond-rockville-stafford-victoria-virginia_beach",
        "color": "blue"
      }
    ]
  },
  {
    "name": "Stafford, VA",
    "lat": 38.4221,
    "lng": -77.4083,
    "links": [
      {
        "type": "keyword",
        "path": "data/usa/keyword/alberta-amherst-bowling_green-charlottesville-fredericksburg-hanover-harrisonburg-la_crosse-lawrenceville-lynchburg-norfolk-petersburg-portsmouth-richmond-rockville-stafford-victoria-virginia_beach",
        "color": "blue"
      }
    ]
  },
  {
    "name": "Victoria, VA",
    "lat": 36.9982,
    "lng": -78.2244,
    "links": [
      {
        "type": "keyword",
        "path": "data/usa/keyword/alberta-amherst-bowling_green-charlottesville-fredericksburg-hanover-harrisonburg-la_crosse-lawrenceville-lynchburg-norfolk-petersburg-portsmouth-richmond-rockville-stafford-victoria-virginia_beach",
        "color": "blue"
      }
    ]
  },
  {
    "name": "Virginia Beach, VA",
    "lat": 36.8529,
    "lng": -75.9780,
    "links": [
      {
        "type": "keyword",
        "path": "data/usa/keyword/alberta-amherst-bowling_green-charlottesville-fredericksburg-hanover-harrisonburg-la_crosse-lawrenceville-lynchburg-norfolk-petersburg-portsmouth-richmond-rockville-stafford-victoria-virginia_beach",
        "color": "blue"
      }
    ]
  },
  {
    "name": "Austinville, VA",
    "lat": 36.8382,
    "lng": -80.8570,
    "links": [
      {
        "type": "keyword",
        "path": "data/usa/keyword/austinville-blackridge-bristol-martinsville",
        "color": "blue"
      }
    ]
  },
  {
    "name": "Blackridge, VA",
    "lat": 36.7029,
    "lng": -78.0933,
    "links": [
      {
        "type": "keyword",
        "path": "data/usa/keyword/austinville-blackridge-bristol-martinsville",
        "color": "blue"
      }
    ]
  },
  {
    "name": "Bristol, VA",
    "lat": 36.5951,
    "lng": -82.1887,
    "links": [
      {
        "type": "keyword",
        "path": "data/usa/keyword/austinville-blackridge-bristol-martinsville",
        "color": "blue"
      }
    ]
  },
  {
    "name": "Martinsville, VA",
    "lat": 36.6915,
    "lng": -79.8725,
    "links": [
      {
        "type": "keyword",
        "path": "data/usa/keyword/austinville-blackridge-bristol-martinsville",
        "color": "blue"
      }
    ]
  },
  {
    "name": "Newark, NJ",
    "lat": 40.7357,
    "lng": -74.1724,
    "links": [
      {
        "type": "HI-TEK",
        "path": "data/usa/hitek/newark",
        "color": "blue"
      }
    ]
  },
  {
    "name": "Cliffside Park, NJ",
    "lat": 40.8210,
    "lng": -73.9879,
    "links": [
      {
        "type": "keyword",
        "path": "data/usa/keyword/cliffside_park-closter-cranford-dover-edgewater-elizabeth-englewood-fort_lee-hackensack-jersey_city-kearny-linden-livingston-lyndhurst-madison-newark-orange-palisades_park-paramus-paterson-plainfield-ridgefield-ridgewood-secaucus-tenafly-wayne",
        "color": "blue"
      }
    ]
  },
  {
    "name": "Closter, NJ",
    "lat": 40.9732,
    "lng": -73.9615,
    "links": [
      {
        "type": "keyword",
        "path": "data/usa/keyword/cliffside_park-closter-cranford-dover-edgewater-elizabeth-englewood-fort_lee-hackensack-jersey_city-kearny-linden-livingston-lyndhurst-madison-newark-orange-palisades_park-paramus-paterson-plainfield-ridgefield-ridgewood-secaucus-tenafly-wayne",
        "color": "blue"
      }
    ]
  },
  {
    "name": "Cranford, NJ",
    "lat": 40.6584,
    "lng": -74.2999,
    "links": [
      {
        "type": "keyword",
        "path": "data/usa/keyword/cliffside_park-closter-cranford-dover-edgewater-elizabeth-englewood-fort_lee-hackensack-jersey_city-kearny-linden-livingston-lyndhurst-madison-newark-orange-palisades_park-paramus-paterson-plainfield-ridgefield-ridgewood-secaucus-tenafly-wayne",
        "color": "blue"
      }
    ]
  },
  {
    "name": "Dover, NJ",
    "lat": 40.8834,
    "lng": -74.5621,
    "links": [
      {
        "type": "keyword",
        "path": "data/usa/keyword/cliffside_park-closter-cranford-dover-edgewater-elizabeth-englewood-fort_lee-hackensack-jersey_city-kearny-linden-livingston-lyndhurst-madison-newark-orange-palisades_park-paramus-paterson-plainfield-ridgefield-ridgewood-secaucus-tenafly-wayne",
        "color": "blue"
      }
    ]
  },
  {
    "name": "Edgewater, NJ",
    "lat": 40.8270,
    "lng": -73.9754,
    "links": [
      {
        "type": "keyword",
        "path": "data/usa/keyword/cliffside_park-closter-cranford-dover-edgewater-elizabeth-englewood-fort_lee-hackensack-jersey_city-kearny-linden-livingston-lyndhurst-madison-newark-orange-palisades_park-paramus-paterson-plainfield-ridgefield-ridgewood-secaucus-tenafly-wayne",
        "color": "blue"
      }
    ]
  },
  {
    "name": "Elizabeth, NJ",
    "lat": 40.6639,
    "lng": -74.2107,
    "links": [
      {
        "type": "keyword",
        "path": "data/usa/keyword/cliffside_park-closter-cranford-dover-edgewater-elizabeth-englewood-fort_lee-hackensack-jersey_city-kearny-linden-livingston-lyndhurst-madison-newark-orange-palisades_park-paramus-paterson-plainfield-ridgefield-ridgewood-secaucus-tenafly-wayne",
        "color": "blue"
      }
    ]
  },
  {
    "name": "Englewood, NJ",
    "lat": 40.8929,
    "lng": -73.9726,
    "links": [
      {
        "type": "keyword",
        "path": "data/usa/keyword/cliffside_park-closter-cranford-dover-edgewater-elizabeth-englewood-fort_lee-hackensack-jersey_city-kearny-linden-livingston-lyndhurst-madison-newark-orange-palisades_park-paramus-paterson-plainfield-ridgefield-ridgewood-secaucus-tenafly-wayne",
        "color": "blue"
      }
    ]
  },
  {
    "name": "Fort Lee, NJ",
    "lat": 40.8509,
    "lng": -73.9701,
    "links": [
      {
        "type": "keyword",
        "path": "data/usa/keyword/cliffside_park-closter-cranford-dover-edgewater-elizabeth-englewood-fort_lee-hackensack-jersey_city-kearny-linden-livingston-lyndhurst-madison-newark-orange-palisades_park-paramus-paterson-plainfield-ridgefield-ridgewood-secaucus-tenafly-wayne",
        "color": "blue"
      }
    ]
  },
  {
    "name": "Hackensack, NJ",
    "lat": 40.8859,
    "lng": -74.0435,
    "links": [
      {
        "type": "keyword",
        "path": "data/usa/keyword/cliffside_park-closter-cranford-dover-edgewater-elizabeth-englewood-fort_lee-hackensack-jersey_city-kearny-linden-livingston-lyndhurst-madison-newark-orange-palisades_park-paramus-paterson-plainfield-ridgefield-ridgewood-secaucus-tenafly-wayne",
        "color": "blue"
      }
    ]
  },
  {
    "name": "Jersey City, NJ",
    "lat": 40.7178,
    "lng": -74.0431,
    "links": [
      {
        "type": "keyword",
        "path": "data/usa/keyword/cliffside_park-closter-cranford-dover-edgewater-elizabeth-englewood-fort_lee-hackensack-jersey_city-kearny-linden-livingston-lyndhurst-madison-newark-orange-palisades_park-paramus-paterson-plainfield-ridgefield-ridgewood-secaucus-tenafly-wayne",
        "color": "blue"
      }
    ]
  },
  {
    "name": "Kearny, NJ",
    "lat": 40.7684,
    "lng": -74.1454,
    "links": [
      {
        "type": "keyword",
        "path": "data/usa/keyword/cliffside_park-closter-cranford-dover-edgewater-elizabeth-englewood-fort_lee-hackensack-jersey_city-kearny-linden-livingston-lyndhurst-madison-newark-orange-palisades_park-paramus-paterson-plainfield-ridgefield-ridgewood-secaucus-tenafly-wayne",
        "color": "blue"
      }
    ]
  },
  {
    "name": "Linden, NJ",
    "lat": 40.6220,
    "lng": -74.2446,
    "links": [
      {
        "type": "keyword",
        "path": "data/usa/keyword/cliffside_park-closter-cranford-dover-edgewater-elizabeth-englewood-fort_lee-hackensack-jersey_city-kearny-linden-livingston-lyndhurst-madison-newark-orange-palisades_park-paramus-paterson-plainfield-ridgefield-ridgewood-secaucus-tenafly-wayne",
        "color": "blue"
      }
    ]
  },
  {
    "name": "Livingston, NJ",
    "lat": 40.7854,
    "lng": -74.3299,
    "links": [
      {
        "type": "keyword",
        "path": "data/usa/keyword/cliffside_park-closter-cranford-dover-edgewater-elizabeth-englewood-fort_lee-hackensack-jersey_city-kearny-linden-livingston-lyndhurst-madison-newark-orange-palisades_park-paramus-paterson-plainfield-ridgefield-ridgewood-secaucus-tenafly-wayne",
        "color": "blue"
      }
    ]
  },
  {
    "name": "Lyndhurst, NJ",
    "lat": 40.8123,
    "lng": -74.1242,
    "links": [
      {
        "type": "keyword",
        "path": "data/usa/keyword/cliffside_park-closter-cranford-dover-edgewater-elizabeth-englewood-fort_lee-hackensack-jersey_city-kearny-linden-livingston-lyndhurst-madison-newark-orange-palisades_park-paramus-paterson-plainfield-ridgefield-ridgewood-secaucus-tenafly-wayne",
        "color": "blue"
      }
    ]
  },
  {
    "name": "Madison, NJ",
    "lat": 40.7598,
    "lng": -74.4171,
    "links": [
      {
        "type": "keyword",
        "path": "data/usa/keyword/cliffside_park-closter-cranford-dover-edgewater-elizabeth-englewood-fort_lee-hackensack-jersey_city-kearny-linden-livingston-lyndhurst-madison-newark-orange-palisades_park-paramus-paterson-plainfield-ridgefield-ridgewood-secaucus-tenafly-wayne",
        "color": "blue"
      }
    ]
  },
  {
    "name": "Newark, NJ",
    "lat": 40.7357,
    "lng": -74.1724,
    "links": [
      {
        "type": "keyword",
        "path": "data/usa/keyword/cliffside_park-closter-cranford-dover-edgewater-elizabeth-englewood-fort_lee-hackensack-jersey_city-kearny-linden-livingston-lyndhurst-madison-newark-orange-palisades_park-paramus-paterson-plainfield-ridgefield-ridgewood-secaucus-tenafly-wayne",
        "color": "blue"
      }
    ]
  },
  {
    "name": "Orange, NJ",
    "lat": 40.7707,
    "lng": -74.2327,
    "links": [
      {
        "type": "keyword",
        "path": "data/usa/keyword/cliffside_park-closter-cranford-dover-edgewater-elizabeth-englewood-fort_lee-hackensack-jersey_city-kearny-linden-livingston-lyndhurst-madison-newark-orange-palisades_park-paramus-paterson-plainfield-ridgefield-ridgewood-secaucus-tenafly-wayne",
        "color": "blue"
      }
    ]
  },
  {
    "name": "Palisades Park, NJ",
    "lat": 40.8487,
    "lng": -73.9976,
    "links": [
      {
        "type": "keyword",
        "path": "data/usa/keyword/cliffside_park-closter-cranford-dover-edgewater-elizabeth-englewood-fort_lee-hackensack-jersey_city-kearny-linden-livingston-lyndhurst-madison-newark-orange-palisades_park-paramus-paterson-plainfield-ridgefield-ridgewood-secaucus-tenafly-wayne",
        "color": "blue"
      }
    ]
  },
  {
    "name": "Paramus, NJ",
    "lat": 40.9445,
    "lng": -74.0754,
    "links": [
      {
        "type": "keyword",
        "path": "data/usa/keyword/cliffside_park-closter-cranford-dover-edgewater-elizabeth-englewood-fort_lee-hackensack-jersey_city-kearny-linden-livingston-lyndhurst-madison-newark-orange-palisades_park-paramus-paterson-plainfield-ridgefield-ridgewood-secaucus-tenafly-wayne",
        "color": "blue"
      }
    ]
  },
  {
    "name": "Paterson, NJ",
    "lat": 40.9168,
    "lng": -74.1718,
    "links": [
      {
        "type": "keyword",
        "path": "data/usa/keyword/cliffside_park-closter-cranford-dover-edgewater-elizabeth-englewood-fort_lee-hackensack-jersey_city-kearny-linden-livingston-lyndhurst-madison-newark-orange-palisades_park-paramus-paterson-plainfield-ridgefield-ridgewood-secaucus-tenafly-wayne",
        "color": "blue"
      }
    ]
  },
  {
    "name": "Plainfield, NJ",
    "lat": 40.6337,
    "lng": -74.4074,
    "links": [
      {
        "type": "keyword",
        "path": "data/usa/keyword/cliffside_park-closter-cranford-dover-edgewater-elizabeth-englewood-fort_lee-hackensack-jersey_city-kearny-linden-livingston-lyndhurst-madison-newark-orange-palisades_park-paramus-paterson-plainfield-ridgefield-ridgewood-secaucus-tenafly-wayne",
        "color": "blue"
      }
    ]
  },
  {
    "name": "Ridgefield, NJ",
    "lat": 40.8343,
    "lng": -74.0082,
    "links": [
      {
        "type": "keyword",
        "path": "data/usa/keyword/cliffside_park-closter-cranford-dover-edgewater-elizabeth-englewood-fort_lee-hackensack-jersey_city-kearny-linden-livingston-lyndhurst-madison-newark-orange-palisades_park-paramus-paterson-plainfield-ridgefield-ridgewood-secaucus-tenafly-wayne",
        "color": "blue"
      }
    ]
  },
  {
    "name": "Ridgewood, NJ",
    "lat": 40.9793,
    "lng": -74.1165,
    "links": [
      {
        "type": "keyword",
        "path": "data/usa/keyword/cliffside_park-closter-cranford-dover-edgewater-elizabeth-englewood-fort_lee-hackensack-jersey_city-kearny-linden-livingston-lyndhurst-madison-newark-orange-palisades_park-paramus-paterson-plainfield-ridgefield-ridgewood-secaucus-tenafly-wayne",
        "color": "blue"
      }
    ]
  },
  {
    "name": "Secaucus, NJ",
    "lat": 40.7895,
    "lng": -74.0565,
    "links": [
      {
        "type": "keyword",
        "path": "data/usa/keyword/cliffside_park-closter-cranford-dover-edgewater-elizabeth-englewood-fort_lee-hackensack-jersey_city-kearny-linden-livingston-lyndhurst-madison-newark-orange-palisades_park-paramus-paterson-plainfield-ridgefield-ridgewood-secaucus-tenafly-wayne",
        "color": "blue"
      }
    ]
  },
  {
    "name": "Tenafly, NJ",
    "lat": 40.9234,
    "lng": -73.9626,
    "links": [
      {
        "type": "keyword",
        "path": "data/usa/keyword/cliffside_park-closter-cranford-dover-edgewater-elizabeth-englewood-fort_lee-hackensack-jersey_city-kearny-linden-livingston-lyndhurst-madison-newark-orange-palisades_park-paramus-paterson-plainfield-ridgefield-ridgewood-secaucus-tenafly-wayne",
        "color": "blue"
      }
    ]
  },
  {
    "name": "Wayne, NJ",
    "lat": 40.9489,
    "lng": -74.2450,
    "links": [
      {
        "type": "keyword",
        "path": "data/usa/keyword/cliffside_park-closter-cranford-dover-edgewater-elizabeth-englewood-fort_lee-hackensack-jersey_city-kearny-linden-livingston-lyndhurst-madison-newark-orange-palisades_park-paramus-paterson-plainfield-ridgefield-ridgewood-secaucus-tenafly-wayne",
        "color": "blue"
      }
    ]
  },
  {
    "name": "Bloomfield, NJ",
    "lat": 40.8068,
    "lng": -74.1854,
    "links": [
      {
        "type": "keyword",
        "path": "data/usa/keyword/bloomfield",
        "color": "blue"
      }
    ]
  },
  {
    "name": "Clinton, NJ",
    "lat": 40.6368,
    "lng": -74.9099,
    "links": [
      {
        "type": "keyword",
        "path": "data/usa/keyword/clinton-cranbury-keyport-morristown-new_brunswick-succasunna-trenton",
        "color": "blue"
      }
    ]
  },
  {
    "name": "Cranbury, NJ",
    "lat": 40.3134,
    "lng": -74.5202,
    "links": [
      {
        "type": "keyword",
        "path": "data/usa/keyword/clinton-cranbury-keyport-morristown-new_brunswick-succasunna-trenton",
        "color": "blue"
      }
    ]
  },
  {
    "name": "Keyport, NJ",
    "lat": 40.4332,
    "lng": -74.1996,
    "links": [
      {
        "type": "keyword",
        "path": "data/usa/keyword/clinton-cranbury-keyport-morristown-new_brunswick-succasunna-trenton",
        "color": "blue"
      }
    ]
  },
  {
    "name": "Morristown, NJ",
    "lat": 40.7968,
    "lng": -74.4815,
    "links": [
      {
        "type": "keyword",
        "path": "data/usa/keyword/clinton-cranbury-keyport-morristown-new_brunswick-succasunna-trenton",
        "color": "blue"
      }
    ]
  },
  {
    "name": "New Brunswick, NJ",
    "lat": 40.4862,
    "lng": -74.4518,
    "links": [
      {
        "type": "keyword",
        "path": "data/usa/keyword/clinton-cranbury-keyport-morristown-new_brunswick-succasunna-trenton",
        "color": "blue"
      }
    ]
  },
  {
    "name": "Succasunna, NJ",
    "lat": 40.8510,
    "lng": -74.6582,
    "links": [
      {
        "type": "keyword",
        "path": "data/usa/keyword/clinton-cranbury-keyport-morristown-new_brunswick-succasunna-trenton",
        "color": "blue"
      }
    ]
  },
  {
    "name": "Trenton, NJ",
    "lat": 40.2203,
    "lng": -74.7658,
    "links": [
      {
        "type": "keyword",
        "path": "data/usa/keyword/clinton-cranbury-keyport-morristown-new_brunswick-succasunna-trenton",
        "color": "blue"
      }
    ]
  },
  {
    "name": "Asbury Park, NJ",
    "lat": 40.2204,
    "lng": -74.0121,
    "links": [
      {
        "type": "keyword",
        "path": "data/usa/keyword/asbury_park-atlantic_city-lakewood-lawrenceville-point_pleasant-princeton",
        "color": "blue"
      }
    ]
  },
  {
    "name": "Atlantic City, NJ",
    "lat": 39.3643,
    "lng": -74.4229,
    "links": [
      {
        "type": "keyword",
        "path": "data/usa/keyword/asbury_park-atlantic_city-lakewood-lawrenceville-point_pleasant-princeton",
        "color": "blue"
      }
    ]
  },
  {
    "name": "Lakewood, NJ",
    "lat": 40.0771,
    "lng": -74.1985,
    "links": [
      {
        "type": "keyword",
        "path": "data/usa/keyword/asbury_park-atlantic_city-lakewood-lawrenceville-point_pleasant-princeton",
        "color": "blue"
      }
    ]
  },
  {
    "name": "Lawrenceville, NJ",
    "lat": 40.3016,
    "lng": -74.7361,
    "links": [
      {
        "type": "keyword",
        "path": "data/usa/keyword/asbury_park-atlantic_city-lakewood-lawrenceville-point_pleasant-princeton",
        "color": "blue"
      }
    ]
  },
  {
    "name": "Point Pleasant, NJ",
    "lat": 40.0832,
    "lng": -74.0682,
    "links": [
      {
        "type": "keyword",
        "path": "data/usa/keyword/asbury_park-atlantic_city-lakewood-lawrenceville-point_pleasant-princeton",
        "color": "blue"
      }
    ]
  },
  {
    "name": "Princeton, NJ",
    "lat": 40.3487,
    "lng": -74.6590,
    "links": [
      {
        "type": "keyword",
        "path": "data/usa/keyword/asbury_park-atlantic_city-lakewood-lawrenceville-point_pleasant-princeton",
        "color": "blue"
      }
    ]
  },
  {
    "name": "Camden, NJ",
    "lat": 39.9259,
    "lng": -75.1196,
    "links": [
      {
        "type": "keyword",
        "path": "data/usa/keyword/camden",
        "color": "blue"
      }
    ]
  },
  {
    "name": "Waterford, NJ",
    "lat": 39.7246,
    "lng": -74.8689,
    "links": [
      {
        "type": "keyword",
        "path": "data/usa/keyword/waterford",
        "color": "blue"
      }
    ]
  },
  {
    "name": "Vineland, NJ",
    "lat": 39.4864,
    "lng": -75.0255,
    "links": [
      {
        "type": "keyword",
        "path": "data/usa/keyword/vineland",
        "color": "blue"
      }
    ]
  },
  {
    "name": "New York, NY",
    "lat": 40.7128,
    "lng": -74.0060,
    "links": [
      {
        "type": "HI-TEK",
        "path": "data/usa/hitek/new_york",
        "color": "blue"
      }
    ]
  },
  {
    "name": "Albertson, NY",
    "lat": 40.7707,
    "lng": -73.6487,
    "links": [
      {
        "type": "keyword",
        "path": "data/usa/keyword/albertson-bayside-dobbs_ferry-elmont-floral_park-franklin_sq-garden_city-great_neck-harrison-oceanside-plainview-port_washington-staten_island-tarrytown-white_plains-yonkers",
        "color": "blue"
      }
    ]
  },
  {
    "name": "Bayside, NY",
    "lat": 40.7586,
    "lng": -73.7654,
    "links": [
      {
        "type": "keyword",
        "path": "data/usa/keyword/albertson-bayside-dobbs_ferry-elmont-floral_park-franklin_sq-garden_city-great_neck-harrison-oceanside-plainview-port_washington-staten_island-tarrytown-white_plains-yonkers",
        "color": "blue"
      }
    ]
  },
  {
    "name": "Dobbs Ferry, NY",
    "lat": 41.0143,
    "lng": -73.8727,
    "links": [
      {
        "type": "keyword",
        "path": "data/usa/keyword/albertson-bayside-dobbs_ferry-elmont-floral_park-franklin_sq-garden_city-great_neck-harrison-oceanside-plainview-port_washington-staten_island-tarrytown-white_plains-yonkers",
        "color": "blue"
      }
    ]
  },
  {
    "name": "Elmont, NY",
    "lat": 40.7009,
    "lng": -73.7129,
    "links": [
      {
        "type": "keyword",
        "path": "data/usa/keyword/albertson-bayside-dobbs_ferry-elmont-floral_park-franklin_sq-garden_city-great_neck-harrison-oceanside-plainview-port_washington-staten_island-tarrytown-white_plains-yonkers",
        "color": "blue"
      }
    ]
  },
  {
    "name": "Floral Park, NY",
    "lat": 40.7239,
    "lng": -73.7058,
    "links": [
      {
        "type": "keyword",
        "path": "data/usa/keyword/albertson-bayside-dobbs_ferry-elmont-floral_park-franklin_sq-garden_city-great_neck-harrison-oceanside-plainview-port_washington-staten_island-tarrytown-white_plains-yonkers",
        "color": "blue"
      }
    ]
  },
  {
    "name": "Franklin Sq., NY",
    "lat": 40.7073,
    "lng": -73.6760,
    "links": [
      {
        "type": "keyword",
        "path": "data/usa/keyword/albertson-bayside-dobbs_ferry-elmont-floral_park-franklin_sq-garden_city-great_neck-harrison-oceanside-plainview-port_washington-staten_island-tarrytown-white_plains-yonkers",
        "color": "blue"
      }
    ]
  },
  {
    "name": "Garden City, NY",
    "lat": 40.7268,
    "lng": -73.6343,
    "links": [
      {
        "type": "keyword",
        "path": "data/usa/keyword/albertson-bayside-dobbs_ferry-elmont-floral_park-franklin_sq-garden_city-great_neck-harrison-oceanside-plainview-port_washington-staten_island-tarrytown-white_plains-yonkers",
        "color": "blue"
      }
    ]
  },
  {
    "name": "Great Neck, NY",
    "lat": 40.8045,
    "lng": -73.7409,
    "links": [
      {
        "type": "keyword",
        "path": "data/usa/keyword/albertson-bayside-dobbs_ferry-elmont-floral_park-franklin_sq-garden_city-great_neck-harrison-oceanside-plainview-port_washington-staten_island-tarrytown-white_plains-yonkers",
        "color": "blue"
      }
    ]
  },
  {
    "name": "Harrison, NY",
    "lat": 40.9690,
    "lng": -73.7126,
    "links": [
      {
        "type": "keyword",
        "path": "data/usa/keyword/albertson-bayside-dobbs_ferry-elmont-floral_park-franklin_sq-garden_city-great_neck-harrison-oceanside-plainview-port_washington-staten_island-tarrytown-white_plains-yonkers",
        "color": "blue"
      }
    ]
  },
  {
    "name": "Oceanside, NY",
    "lat": 40.6352,
    "lng": -73.6358,
    "links": [
      {
        "type": "keyword",
        "path": "data/usa/keyword/albertson-bayside-dobbs_ferry-elmont-floral_park-franklin_sq-garden_city-great_neck-harrison-oceanside-plainview-port_washington-staten_island-tarrytown-white_plains-yonkers",
        "color": "blue"
      }
    ]
  },
  {
    "name": "Plainview, NY",
    "lat": 40.7765,
    "lng": -73.4674,
    "links": [
      {
        "type": "keyword",
        "path": "data/usa/keyword/albertson-bayside-dobbs_ferry-elmont-floral_park-franklin_sq-garden_city-great_neck-harrison-oceanside-plainview-port_washington-staten_island-tarrytown-white_plains-yonkers",
        "color": "blue"
      }
    ]
  },
  {
    "name": "Port Washington, NY",
    "lat": 40.8275,
    "lng": -73.6997,
    "links": [
      {
        "type": "keyword",
        "path": "data/usa/keyword/albertson-bayside-dobbs_ferry-elmont-floral_park-franklin_sq-garden_city-great_neck-harrison-oceanside-plainview-port_washington-staten_island-tarrytown-white_plains-yonkers",
        "color": "blue"
      }
    ]
  },
  {
    "name": "Staten Island, NY",
    "lat": 40.5790,
    "lng": -74.1515,
    "links": [
      {
        "type": "keyword",
        "path": "data/usa/keyword/albertson-bayside-dobbs_ferry-elmont-floral_park-franklin_sq-garden_city-great_neck-harrison-oceanside-plainview-port_washington-staten_island-tarrytown-white_plains-yonkers",
        "color": "blue"
      }
    ]
  },
  {
    "name": "Tarrytown, NY",
    "lat": 41.0762,
    "lng": -73.8585,
    "links": [
      {
        "type": "keyword",
        "path": "data/usa/keyword/albertson-bayside-dobbs_ferry-elmont-floral_park-franklin_sq-garden_city-great_neck-harrison-oceanside-plainview-port_washington-staten_island-tarrytown-white_plains-yonkers",
        "color": "blue"
      }
    ]
  },
  {
    "name": "White Plains, NY",
    "lat": 41.0330,
    "lng": -73.7629,
    "links": [
      {
        "type": "keyword",
        "path": "data/usa/keyword/albertson-bayside-dobbs_ferry-elmont-floral_park-franklin_sq-garden_city-great_neck-harrison-oceanside-plainview-port_washington-staten_island-tarrytown-white_plains-yonkers",
        "color": "blue"
      }
    ]
  },
  {
    "name": "Yonkers, NY",
    "lat": 40.9312,
    "lng": -73.8988,
    "links": [
      {
        "type": "keyword",
        "path": "data/usa/keyword/albertson-bayside-dobbs_ferry-elmont-floral_park-franklin_sq-garden_city-great_neck-harrison-oceanside-plainview-port_washington-staten_island-tarrytown-white_plains-yonkers",
        "color": "blue"
      }
    ]
  },
  {
    "name": "Tappan, NY",
    "lat": 41.0220,
    "lng": -73.9451,
    "links": [
      {
        "type": "keyword",
        "path": "data/usa/keyword/tappan",
        "color": "blue"
      }
    ]
  },
  {
    "name": "Bedford, NY",
    "lat": 41.2043,
    "lng": -73.6437,
    "links": [
      {
        "type": "keyword",
        "path": "data/usa/keyword/bedford-bronx-brooklyn-douglaston-flushing-fresh_meadows-jamaica-oyster_bay-queens",
        "color": "blue"
      }
    ]
  },
  {
    "name": "Bronx, NY",
    "lat": 40.8448,
    "lng": -73.8648,
    "links": [
      {
        "type": "keyword",
        "path": "data/usa/keyword/bedford-bronx-brooklyn-douglaston-flushing-fresh_meadows-jamaica-oyster_bay-queens",
        "color": "blue"
      }
    ]
  },
  {
    "name": "Brooklyn, NY",
    "lat": 40.6782,
    "lng": -73.9442,
    "links": [
      {
        "type": "keyword",
        "path": "data/usa/keyword/bedford-bronx-brooklyn-douglaston-flushing-fresh_meadows-jamaica-oyster_bay-queens",
        "color": "blue"
      }
    ]
  },
  {
    "name": "Douglaston, NY",
    "lat": 40.7687,
    "lng": -73.7410,
    "links": [
      {
        "type": "keyword",
        "path": "data/usa/keyword/bedford-bronx-brooklyn-douglaston-flushing-fresh_meadows-jamaica-oyster_bay-queens",
        "color": "blue"
      }
    ]
  },
  {
    "name": "Flushing, NY",
    "lat": 40.7654,
    "lng": -73.8174,
    "links": [
      {
        "type": "keyword",
        "path": "data/usa/keyword/bedford-bronx-brooklyn-douglaston-flushing-fresh_meadows-jamaica-oyster_bay-queens",
        "color": "blue"
      }
    ]
  },
  {
    "name": "Fresh Meadows, NY",
    "lat": 40.7387,
    "lng": -73.7934,
    "links": [
      {
        "type": "keyword",
        "path": "data/usa/keyword/bedford-bronx-brooklyn-douglaston-flushing-fresh_meadows-jamaica-oyster_bay-queens",
        "color": "blue"
      }
    ]
  },
  {
    "name": "Jamaica, NY",
    "lat": 40.7027,
    "lng": -73.7890,
    "links": [
      {
        "type": "keyword",
        "path": "data/usa/keyword/bedford-bronx-brooklyn-douglaston-flushing-fresh_meadows-jamaica-oyster_bay-queens",
        "color": "blue"
      }
    ]
  },
  {
    "name": "Oyster Bay, NY",
    "lat": 40.8654,
    "lng": -73.5321,
    "links": [
      {
        "type": "keyword",
        "path": "data/usa/keyword/bedford-bronx-brooklyn-douglaston-flushing-fresh_meadows-jamaica-oyster_bay-queens",
        "color": "blue"
      }
    ]
  },
  {
    "name": "Queens, NY",
    "lat": 40.7282,
    "lng": -73.7949,
    "links": [
      {
        "type": "keyword",
        "path": "data/usa/keyword/bedford-bronx-brooklyn-douglaston-flushing-fresh_meadows-jamaica-oyster_bay-queens",
        "color": "blue"
      }
    ]
  },
  {
    "name": "Bay Shore, NY",
    "lat": 40.7251,
    "lng": -73.2454,
    "links": [
      {
        "type": "keyword",
        "path": "data/usa/keyword/bay_shore-brentwood-lindenhurst",
        "color": "blue"
      }
    ]
  },
  {
    "name": "Brentwood, NY",
    "lat": 40.7812,
    "lng": -73.2462,
    "links": [
      {
        "type": "keyword",
        "path": "data/usa/keyword/bay_shore-brentwood-lindenhurst",
        "color": "blue"
      }
    ]
  },
  {
    "name": "Lindenhurst, NY",
    "lat": 40.6868,
    "lng": -73.3735,
    "links": [
      {
        "type": "keyword",
        "path": "data/usa/keyword/bay_shore-brentwood-lindenhurst",
        "color": "blue"
      }
    ]
  },
  {
    "name": "Long Island City, NY",
    "lat": 40.7440,
    "lng": -73.9488,
    "links": [
      {
        "type": "keyword",
        "path": "data/usa/keyword/long_island_city-manhattan",
        "color": "blue"
      }
    ]
  },
  {
    "name": "Manhattan, NY",
    "lat": 40.7831,
    "lng": -73.9712,
    "links": [
      {
        "type": "keyword",
        "path": "data/usa/keyword/long_island_city-manhattan",
        "color": "blue"
      }
    ]
  },
  {
    "name": "Brookhaven, NY",
    "lat": 40.7793,
    "lng": -72.9150,
    "links": [
      {
        "type": "keyword",
        "path": "data/usa/keyword/brookhaven-centereach-deer_park-hauppauge-huntington-stony_brook",
        "color": "blue"
      }
    ]
  },
  {
    "name": "Centereach, NY",
    "lat": 40.8584,
    "lng": -73.0801,
    "links": [
      {
        "type": "keyword",
        "path": "data/usa/keyword/brookhaven-centereach-deer_park-hauppauge-huntington-stony_brook",
        "color": "blue"
      }
    ]
  },
  {
    "name": "Deer Park, NY",
    "lat": 40.7618,
    "lng": -73.3296,
    "links": [
      {
        "type": "keyword",
        "path": "data/usa/keyword/brookhaven-centereach-deer_park-hauppauge-huntington-stony_brook",
        "color": "blue"
      }
    ]
  },
  {
    "name": "Hauppauge, NY",
    "lat": 40.8257,
    "lng": -73.2021,
    "links": [
      {
        "type": "keyword",
        "path": "data/usa/keyword/brookhaven-centereach-deer_park-hauppauge-huntington-stony_brook",
        "color": "blue"
      }
    ]
  },
  {
    "name": "Huntington, NY",
    "lat": 40.8682,
    "lng": -73.4257,
    "links": [
      {
        "type": "keyword",
        "path": "data/usa/keyword/brookhaven-centereach-deer_park-hauppauge-huntington-stony_brook",
        "color": "blue"
      }
    ]
  },
  {
    "name": "Stony Brook, NY",
    "lat": 40.9254,
    "lng": -73.1400,
    "links": [
      {
        "type": "keyword",
        "path": "data/usa/keyword/brookhaven-centereach-deer_park-hauppauge-huntington-stony_brook",
        "color": "blue"
      }
    ]
  },
  {
    "name": "Carmel, NY",
    "lat": 41.4301,
    "lng": -73.6801,
    "links": [
      {
        "type": "keyword",
        "path": "data/usa/keyword/carmel-middletown-port_jefferson-poughkeepsie",
        "color": "blue"
      }
    ]
  },
  {
    "name": "Middletown, NY",
    "lat": 41.4459,
    "lng": -74.4229,
    "links": [
      {
        "type": "keyword",
        "path": "data/usa/keyword/carmel-middletown-port_jefferson-poughkeepsie",
        "color": "blue"
      }
    ]
  },
  {
    "name": "Port Jefferson, NY",
    "lat": 40.9465,
    "lng": -73.0690,
    "links": [
      {
        "type": "keyword",
        "path": "data/usa/keyword/carmel-middletown-port_jefferson-poughkeepsie",
        "color": "blue"
      }
    ]
  },
  {
    "name": "Poughkeepsie, NY",
    "lat": 41.7004,
    "lng": -73.9210,
    "links": [
      {
        "type": "keyword",
        "path": "data/usa/keyword/carmel-middletown-port_jefferson-poughkeepsie",
        "color": "blue"
      }
    ]
  },
  {
    "name": "Kingston, NY",
    "lat": 41.9270,
    "lng": -73.9974,
    "links": [
      {
        "type": "keyword",
        "path": "data/usa/keyword/kingston",
        "color": "blue"
      }
    ]
  },
  {
    "name": "Fishers Island, NY",
    "lat": 41.2648,
    "lng": -71.9837,
    "links": [
      {
        "type": "keyword",
        "path": "data/usa/keyword/fishers_island",
        "color": "blue"
      }
    ]
  },
  {
    "name": "Albany, NY",
    "lat": 42.6526,
    "lng": -73.7562,
    "links": [
      {
        "type": "keyword",
        "path": "data/usa/keyword/albany",
        "color": "blue"
      }
    ]
  },
  {
    "name": "Auburn, NY",
    "lat": 42.9317,
    "lng": -76.5661,
    "links": [
      {
        "type": "keyword",
        "path": "data/usa/keyword/auburn-binghamton-elmira-ithaca-little_falls-syracuse-troy-utica",
        "color": "blue"
      }
    ]
  },
  {
    "name": "Binghamton, NY",
    "lat": 42.0987,
    "lng": -75.9180,
    "links": [
      {
        "type": "keyword",
        "path": "data/usa/keyword/auburn-binghamton-elmira-ithaca-little_falls-syracuse-troy-utica",
        "color": "blue"
      }
    ]
  },
  {
    "name": "Elmira, NY",
    "lat": 42.0898,
    "lng": -76.8077,
    "links": [
      {
        "type": "keyword",
        "path": "data/usa/keyword/auburn-binghamton-elmira-ithaca-little_falls-syracuse-troy-utica",
        "color": "blue"
      }
    ]
  },
  {
    "name": "Ithaca, NY",
    "lat": 42.4439,
    "lng": -76.5019,
    "links": [
      {
        "type": "keyword",
        "path": "data/usa/keyword/auburn-binghamton-elmira-ithaca-little_falls-syracuse-troy-utica",
        "color": "blue"
      }
    ]
  },
  {
    "name": "Little Falls, NY",
    "lat": 43.0434,
    "lng": -74.8599,
    "links": [
      {
        "type": "keyword",
        "path": "data/usa/keyword/auburn-binghamton-elmira-ithaca-little_falls-syracuse-troy-utica",
        "color": "blue"
      }
    ]
  },
  {
    "name": "Syracuse, NY",
    "lat": 43.0481,
    "lng": -76.1474,
    "links": [
      {
        "type": "keyword",
        "path": "data/usa/keyword/auburn-binghamton-elmira-ithaca-little_falls-syracuse-troy-utica",
        "color": "blue"
      }
    ]
  },
  {
    "name": "Troy, NY",
    "lat": 42.7284,
    "lng": -73.6918,
    "links": [
      {
        "type": "keyword",
        "path": "data/usa/keyword/auburn-binghamton-elmira-ithaca-little_falls-syracuse-troy-utica",
        "color": "blue"
      }
    ]
  },
  {
    "name": "Utica, NY",
    "lat": 43.1009,
    "lng": -75.2327,
    "links": [
      {
        "type": "keyword",
        "path": "data/usa/keyword/auburn-binghamton-elmira-ithaca-little_falls-syracuse-troy-utica",
        "color": "blue"
      }
    ]
  },
  {
    "name": "Glens Falls, NY",
    "lat": 43.3095,
    "lng": -73.6440,
    "links": [
      {
        "type": "keyword",
        "path": "data/usa/keyword/glens_falls",
        "color": "blue"
      }
    ]
  },
  {
    "name": "Belmont, NY",
    "lat": 42.2284,
    "lng": -78.0342,
    "links": [
      {
        "type": "keyword",
        "path": "data/usa/keyword/belmont",
        "color": "blue"
      }
    ]
  },
  {
    "name": "Rome, NY",
    "lat": 43.2128,
    "lng": -75.4557,
    "links": [
      {
        "type": "keyword",
        "path": "data/usa/keyword/rome",
        "color": "blue"
      }
    ]
  },
  {
    "name": "Rochester, NY",
    "lat": 43.1566,
    "lng": -77.6088,
    "links": [
      {
        "type": "keyword",
        "path": "data/usa/keyword/rochester",
        "color": "blue"
      }
    ]
  },
  {
    "name": "Salamanca, NY",
    "lat": 42.1579,
    "lng": -78.7159,
    "links": [
      {
        "type": "keyword",
        "path": "data/usa/keyword/salamanca",
        "color": "blue"
      }
    ]
  },
  {
    "name": "Watertown, NY",
    "lat": 43.9748,
    "lng": -75.9108,
    "links": [
      {
        "type": "keyword",
        "path": "data/usa/keyword/watertown",
        "color": "blue"
      }
    ]
  },
  {
    "name": "Brighton, NY",
    "lat": 43.1168,
    "lng": -77.5670,
    "links": [
      {
        "type": "keyword",
        "path": "data/usa/keyword/brighton-buffalo-lancaster-lockport-niagara_falls-tonawanda",
        "color": "blue"
      }
    ]
  },
  {
    "name": "Buffalo, NY",
    "lat": 42.8864,
    "lng": -78.8784,
    "links": [
      {
        "type": "keyword",
        "path": "data/usa/keyword/brighton-buffalo-lancaster-lockport-niagara_falls-tonawanda",
        "color": "blue"
      }
    ]
  },
  {
    "name": "Lancaster, NY",
    "lat": 42.9001,
    "lng": -78.6706,
    "links": [
      {
        "type": "keyword",
        "path": "data/usa/keyword/brighton-buffalo-lancaster-lockport-niagara_falls-tonawanda",
        "color": "blue"
      }
    ]
  },
  {
    "name": "Lockport, NY",
    "lat": 43.1706,
    "lng": -78.6903,
    "links": [
      {
        "type": "keyword",
        "path": "data/usa/keyword/brighton-buffalo-lancaster-lockport-niagara_falls-tonawanda",
        "color": "blue"
      }
    ]
  },
  {
    "name": "Niagara Falls, NY",
    "lat": 43.0962,
    "lng": -79.0377,
    "links": [
      {
        "type": "keyword",
        "path": "data/usa/keyword/brighton-buffalo-lancaster-lockport-niagara_falls-tonawanda",
        "color": "blue"
      }
    ]
  },
  {
    "name": "Tonawanda, NY",
    "lat": 42.9850,
    "lng": -78.8789,
    "links": [
      {
        "type": "keyword",
        "path": "data/usa/keyword/brighton-buffalo-lancaster-lockport-niagara_falls-tonawanda",
        "color": "blue"
      }
    ]
  },
  {
    "name": "Hartford, CT",
    "lat": 41.7637,
    "lng": -72.6851,
    "links": [
      {
        "type": "HI-TEK",
        "path": "data/usa/hitek/hartford",
        "color": "blue"
      },
      {
        "type": "keyword",
        "path": "data/usa/keyword/hartford-manchester-new_britain-new_london-west_hartford-windsor",
        "color": "blue"
      }
    ]
  },
  {
    "name": "Greenwich, CT",
    "lat": 41.0262,
    "lng": -73.6282,
    "links": [
      {
        "type": "keyword",
        "path": "data/usa/keyword/greenwich",
        "color": "blue"
      }
    ]
  },
  {
    "name": "Stamford, CT",
    "lat": 41.0534,
    "lng": -73.5387,
    "links": [
      {
        "type": "keyword",
        "path": "data/usa/keyword/stamford",
        "color": "blue"
      }
    ]
  },
  {
    "name": "Bristol, CT",
    "lat": 41.6718,
    "lng": -72.9493,
    "links": [
      {
        "type": "keyword",
        "path": "data/usa/keyword/bristol-bridgeport-danbury-new_haven-norwalk-waterbury",
        "color": "blue"
      }
    ]
  },
  {
    "name": "Bridgeport, CT",
    "lat": 41.1792,
    "lng": -73.1894,
    "links": [
      {
        "type": "keyword",
        "path": "data/usa/keyword/bristol-bridgeport-danbury-new_haven-norwalk-waterbury",
        "color": "blue"
      }
    ]
  },
  {
    "name": "Danbury, CT",
    "lat": 41.3948,
    "lng": -73.4540,
    "links": [
      {
        "type": "keyword",
        "path": "data/usa/keyword/bristol-bridgeport-danbury-new_haven-norwalk-waterbury",
        "color": "blue"
      }
    ]
  },
  {
    "name": "New Haven, CT",
    "lat": 41.3083,
    "lng": -72.9279,
    "links": [
      {
        "type": "keyword",
        "path": "data/usa/keyword/bristol-bridgeport-danbury-new_haven-norwalk-waterbury",
        "color": "blue"
      }
    ]
  },
  {
    "name": "Norwalk, CT",
    "lat": 41.1176,
    "lng": -73.4082,
    "links": [
      {
        "type": "keyword",
        "path": "data/usa/keyword/bristol-bridgeport-danbury-new_haven-norwalk-waterbury",
        "color": "blue"
      }
    ]
  },
  {
    "name": "Waterbury, CT",
    "lat": 41.5582,
    "lng": -73.0515,
    "links": [
      {
        "type": "keyword",
        "path": "data/usa/keyword/bristol-bridgeport-danbury-new_haven-norwalk-waterbury",
        "color": "blue"
      }
    ]
  },
  {
    "name": "Manchester, CT",
    "lat": 41.7759,
    "lng": -72.5215,
    "links": [
      {
        "type": "keyword",
        "path": "data/usa/keyword/hartford-manchester-new_britain-new_london-west_hartford-windsor",
        "color": "blue"
      }
    ]
  },
  {
    "name": "New Britain, CT",
    "lat": 41.6612,
    "lng": -72.7795,
    "links": [
      {
        "type": "keyword",
        "path": "data/usa/keyword/hartford-manchester-new_britain-new_london-west_hartford-windsor",
        "color": "blue"
      }
    ]
  },
  {
    "name": "New London, CT",
    "lat": 41.3557,
    "lng": -72.0995,
    "links": [
      {
        "type": "keyword",
        "path": "data/usa/keyword/hartford-manchester-new_britain-new_london-west_hartford-windsor",
        "color": "blue"
      }
    ]
  },
  {
    "name": "West Hartford, CT",
    "lat": 41.7621,
    "lng": -72.7420,
    "links": [
      {
        "type": "keyword",
        "path": "data/usa/keyword/hartford-manchester-new_britain-new_london-west_hartford-windsor",
        "color": "blue"
      }
    ]
  },
  {
    "name": "Windsor, CT",
    "lat": 41.8526,
    "lng": -72.6438,
    "links": [
      {
        "type": "keyword",
        "path": "data/usa/keyword/hartford-manchester-new_britain-new_london-west_hartford-windsor",
        "color": "blue"
      }
    ]
  },
  {
    "name": "Norwich, CT",
    "lat": 41.5243,
    "lng": -72.0759,
    "links": [
      {
        "type": "keyword",
        "path": "data/usa/keyword/norwich",
        "color": "blue"
      }
    ]
  },
{
  "name": "Washington, DC",
  "lat": 38.89528,
  "lng": -77.01778,
  "links": [
    {
      "type": "keyword",
      "path": "data/usa/keyword/washington",
      "color": "blue"
    }
  ]
},
  {
    "name": "Newark, DE",
    "lat": 39.683723,
    "lng": -75.749657,
    "links": [
      {
        "type": "keyword",
        "path": "data/usa/keyword/newark",
        "color": "blue"
      }
    ]
  },
  {
    "name": "Millsboro, DE",
    "lat": 38.5888,
    "lng": -75.2913,
    "links": [
      {
        "type": "keyword",
        "path": "data/usa/keyword/millsboro",
        "color": "blue"
      }
    ]
  },
  {
    "name": "Springfield, MA",
    "lat": 42.1015,
    "lng": -72.5898,
    "links": [
      {
        "type": "keyword",
        "path": "data/usa/keyword/springfield",
        "color": "blue"
      }
    ]
  },
  {
    "name": "Amherst, MA",
    "lat": 42.3732,
    "lng": -72.5199,
    "links": [
      {
        "type": "keyword",
        "path": "data/usa/keyword/amherst-northampton",
        "color": "blue"
      }
    ]
  },
  {
    "name": "Northampton, MA",
    "lat": 42.3251,
    "lng": -72.6412,
    "links": [
      {
        "type": "keyword",
        "path": "data/usa/keyword/amherst-northampton",
        "color": "blue"
      }
    ]
  },
  {
    "name": "Fall River, MA",
    "lat": 41.7015,
    "lng": -71.1550,
    "links": [
      {
        "type": "keyword",
        "path": "data/usa/keyword/fall_river-leominster-taunton-worcester",
        "color": "blue"
      }
    ]
  },
  {
    "name": "Leominster, MA",
    "lat": 42.5251,
    "lng": -71.7598,
    "links": [
      {
        "type": "keyword",
        "path": "data/usa/keyword/fall_river-leominster-taunton-worcester",
        "color": "blue"
      }
    ]
  },
  {
    "name": "Taunton, MA",
    "lat": 41.9001,
    "lng": -71.0898,
    "links": [
      {
        "type": "keyword",
        "path": "data/usa/keyword/fall_river-leominster-taunton-worcester",
        "color": "blue"
      }
    ]
  },
  {
    "name": "Worcester, MA",
    "lat": 42.2626,
    "lng": -71.8023,
    "links": [
      {
        "type": "keyword",
        "path": "data/usa/keyword/fall_river-leominster-taunton-worcester",
        "color": "blue"
      }
    ]
  },
  {
    "name": "Arlington, MA",
    "lat": 42.4154,
    "lng": -71.1565,
    "links": [
      {
        "type": "keyword",
        "path": "data/usa/keyword/arlington-boston-brockton-cambridge-everett-lexington-lowell-lynn-medford-new_bedford-newton",
        "color": "blue"
      }
    ]
  },
  {
    "name": "Boston, MA",
    "lat": 42.3601,
    "lng": -71.0589,
    "links": [
      {
        "type": "keyword",
        "path": "data/usa/keyword/arlington-boston-brockton-cambridge-everett-lexington-lowell-lynn-medford-new_bedford-newton",
        "color": "blue"
      }
    ]
  },
  {
    "name": "Brockton, MA",
    "lat": 42.0834,
    "lng": -71.0184,
    "links": [
      {
        "type": "keyword",
        "path": "data/usa/keyword/arlington-boston-brockton-cambridge-everett-lexington-lowell-lynn-medford-new_bedford-newton",
        "color": "blue"
      }
    ]
  },
  {
    "name": "Cambridge, MA",
    "lat": 42.3736,
    "lng": -71.1097,
    "links": [
      {
        "type": "keyword",
        "path": "data/usa/keyword/arlington-boston-brockton-cambridge-everett-lexington-lowell-lynn-medford-new_bedford-newton",
        "color": "blue"
      }
    ]
  },
  {
    "name": "Everett, MA",
    "lat": 42.4084,
    "lng": -71.0537,
    "links": [
      {
        "type": "keyword",
        "path": "data/usa/keyword/arlington-boston-brockton-cambridge-everett-lexington-lowell-lynn-medford-new_bedford-newton",
        "color": "blue"
      }
    ]
  },
  {
    "name": "Lexington, MA",
    "lat": 42.4473,
    "lng": -71.2245,
    "links": [
      {
        "type": "keyword",
        "path": "data/usa/keyword/arlington-boston-brockton-cambridge-everett-lexington-lowell-lynn-medford-new_bedford-newton",
        "color": "blue"
      }
    ]
  },
  {
    "name": "Lowell, MA",
    "lat": 42.6334,
    "lng": -71.3162,
    "links": [
      {
        "type": "keyword",
        "path": "data/usa/keyword/arlington-boston-brockton-cambridge-everett-lexington-lowell-lynn-medford-new_bedford-newton",
        "color": "blue"
      }
    ]
  },
  {
    "name": "Lynn, MA",
    "lat": 42.4668,
    "lng": -70.9495,
    "links": [
      {
        "type": "keyword",
        "path": "data/usa/keyword/arlington-boston-brockton-cambridge-everett-lexington-lowell-lynn-medford-new_bedford-newton",
        "color": "blue"
      }
    ]
  },
  {
    "name": "Medford, MA",
    "lat": 42.4184,
    "lng": -71.1062,
    "links": [
      {
        "type": "keyword",
        "path": "data/usa/keyword/arlington-boston-brockton-cambridge-everett-lexington-lowell-lynn-medford-new_bedford-newton",
        "color": "blue"
      }
    ]
  },
  {
    "name": "New Bedford, MA",
    "lat": 41.6362,
    "lng": -70.9342,
    "links": [
      {
        "type": "keyword",
        "path": "data/usa/keyword/arlington-boston-brockton-cambridge-everett-lexington-lowell-lynn-medford-new_bedford-newton",
        "color": "blue"
      }
    ]
  },
  {
    "name": "Newton, MA",
    "lat": 42.3370,
    "lng": -71.2092,
    "links": [
      {
        "type": "keyword",
        "path": "data/usa/keyword/arlington-boston-brockton-cambridge-everett-lexington-lowell-lynn-medford-new_bedford-newton",
        "color": "blue"
      }
    ]
  },
  {
    "name": "Lawrence, MA",
    "lat": 42.7070,
    "lng": -71.1631,
    "links": [
      {
        "type": "keyword",
        "path": "data/usa/keyword/lawrence-quincy-salem",
        "color": "blue"
      }
    ]
  },
  {
    "name": "Quincy, MA",
    "lat": 42.2529,
    "lng": -71.0023,
    "links": [
      {
        "type": "keyword",
        "path": "data/usa/keyword/lawrence-quincy-salem",
        "color": "blue"
      }
    ]
  },
  {
    "name": "Salem, MA",
    "lat": 42.5195,
    "lng": -70.8967,
    "links": [
      {
        "type": "keyword",
        "path": "data/usa/keyword/lawrence-quincy-salem",
        "color": "blue"
      }
    ]
  },
  {
    "name": "Edgewood, MD",
    "lat": 39.4187,
    "lng": -76.2944,
    "links": [
      {
        "type": "keyword",
        "path": "data/usa/keyword/edgewood",
        "color": "blue"
      }
    ]
  },
  {
    "name": "Baltimore, MD",
    "lat": 39.2904,
    "lng": -76.6122,
    "links": [
      {
        "type": "keyword",
        "path": "data/usa/keyword/baltimore-ellicott_city",
        "color": "blue"
      }
    ]
  },
  {
    "name": "Ellicott City, MD",
    "lat": 39.2673,
    "lng": -76.7983,
    "links": [
      {
        "type": "keyword",
        "path": "data/usa/keyword/baltimore-ellicott_city",
        "color": "blue"
      }
    ]
  },
  {
    "name": "Annapolis, MD",
    "lat": 38.9784,
    "lng": -76.4922,
    "links": [
      {
        "type": "keyword",
        "path": "data/usa/keyword/annapolis-college_park-columbia-silver_spring-westminster",
        "color": "blue"
      }
    ]
  },
  {
    "name": "College Park, MD",
    "lat": 38.9807,
    "lng": -76.9369,
    "links": [
      {
        "type": "keyword",
        "path": "data/usa/keyword/annapolis-college_park-columbia-silver_spring-westminster",
        "color": "blue"
      }
    ]
  },
  {
    "name": "Columbia, MD",
    "lat": 39.2037,
    "lng": -76.8610,
    "links": [
      {
        "type": "keyword",
        "path": "data/usa/keyword/annapolis-college_park-columbia-silver_spring-westminster",
        "color": "blue"
      }
    ]
  },
  {
    "name": "Silver Spring, MD",
    "lat": 38.9907,
    "lng": -77.0261,
    "links": [
      {
        "type": "keyword",
        "path": "data/usa/keyword/annapolis-college_park-columbia-silver_spring-westminster",
        "color": "blue"
      }
    ]
  },
  {
    "name": "Westminster, MD",
    "lat": 39.5754,
    "lng": -76.9958,
    "links": [
      {
        "type": "keyword",
        "path": "data/usa/keyword/annapolis-college_park-columbia-silver_spring-westminster",
        "color": "blue"
      }
    ]
  },
  {
    "name": "Berlin, MD",
    "lat": 38.3300,
    "lng": -75.2167,
    "links": [
      {
        "type": "keyword",
        "path": "data/usa/keyword/berlin-frederick-gaithersburg-potomac-rockville-salisbury",
        "color": "blue"
      }
    ]
  },
  {
    "name": "Frederick, MD",
    "lat": 39.4333,
    "lng": -77.4167,
    "links": [
      {
        "type": "keyword",
        "path": "data/usa/keyword/berlin-frederick-gaithersburg-potomac-rockville-salisbury",
        "color": "blue"
      }
    ]
  },
  {
    "name": "Gaithersburg, MD",
    "lat": 39.1439,
    "lng": -77.2016,
    "links": [
      {
        "type": "keyword",
        "path": "data/usa/keyword/berlin-frederick-gaithersburg-potomac-rockville-salisbury",
        "color": "blue"
      }
    ]
  },
  {
    "name": "Potomac, MD",
    "lat": 39.0182,
    "lng": -77.2086,
    "links": [
      {
        "type": "keyword",
        "path": "data/usa/keyword/berlin-frederick-gaithersburg-potomac-rockville-salisbury",
        "color": "blue"
      }
    ]
  },
  {
    "name": "Rockville, MD",
    "lat": 39.0839,
    "lng": -77.1528,
    "links": [
      {
        "type": "keyword",
        "path": "data/usa/keyword/berlin-frederick-gaithersburg-potomac-rockville-salisbury",
        "color": "blue"
      }
    ]
  },
  {
    "name": "Salisbury, MD",
    "lat": 38.3607,
    "lng": -75.5994,
    "links": [
      {
        "type": "keyword",
        "path": "data/usa/keyword/berlin-frederick-gaithersburg-potomac-rockville-salisbury",
        "color": "blue"
      }
    ]
  },
  {
    "name": "Brunswick, MD",
    "lat": 39.3143,
    "lng": -77.6275,
    "links": [
      {
        "type": "keyword",
        "path": "data/usa/keyword/brunswick",
        "color": "blue"
      }
    ]
  },
  {
    "name": "Clarksburg, MD",
    "lat": 39.2194,
    "lng": -77.2881,
    "links": [
      {
        "type": "keyword",
        "path": "data/usa/keyword/clarksburg-lexington_park",
        "color": "blue"
      }
    ]
  },
  {
    "name": "Lexington Park, MD",
    "lat": 38.2668,
    "lng": -76.4538,
    "links": [
      {
        "type": "keyword",
        "path": "data/usa/keyword/clarksburg-lexington_park",
        "color": "blue"
      }
    ]
  },
  {
    "name": "Portland, ME",
    "lat": 43.6591,
    "lng": -70.2568,
    "links": [
      {
        "type": "keyword",
        "path": "data/usa/keyword/portland-auburn",
        "color": "blue"
      }
    ]
  },
  {
    "name": "Auburn, ME",
    "lat": 44.0979,
    "lng": -70.2312,
    "links": [
      {
        "type": "keyword",
        "path": "data/usa/keyword/portland-auburn",
        "color": "blue"
      }
    ]
  },
  {
    "name": "Keene, NH",
    "lat": 42.9337,
    "lng": -72.2781,
    "links": [
      {
        "type": "keyword",
        "path": "data/usa/keyword/keene",
        "color": "blue"
      }
    ]
  },
  {
    "name": "Claremont, NH",
    "lat": 43.3706,
    "lng": -72.3376,
    "links": [
      {
        "type": "keyword",
        "path": "data/usa/keyword/claremont",
        "color": "blue"
      }
    ]
  },
  {
    "name": "Manchester, NH",
    "lat": 42.9956,
    "lng": -71.4548,
    "links": [
      {
        "type": "keyword",
        "path": "data/usa/keyword/manchester-nashua",
        "color": "blue"
      }
    ]
  },
  {
    "name": "Nashua, NH",
    "lat": 42.7654,
    "lng": -71.4676,
    "links": [
      {
        "type": "keyword",
        "path": "data/usa/keyword/manchester-nashua",
        "color": "blue"
      }
    ]
  },
  {
    "name": "Concord, NH",
    "lat": 43.2081,
    "lng": -71.5376,
    "links": [
      {
        "type": "keyword",
        "path": "data/usa/keyword/concord-dover-lebanon",
        "color": "blue"
      }
    ]
  },
  {
    "name": "Dover, NH",
    "lat": 43.1979,
    "lng": -70.8744,
    "links": [
      {
        "type": "keyword",
        "path": "data/usa/keyword/concord-dover-lebanon",
        "color": "blue"
      }
    ]
  },
  {
    "name": "Lebanon, NH",
    "lat": 43.6423,
    "lng": -72.2518,
    "links": [
      {
        "type": "keyword",
        "path": "data/usa/keyword/concord-dover-lebanon",
        "color": "blue"
      }
    ]
  },
  {
    "name": "Laconia, NH",
    "lat": 43.5276,
    "lng": -71.4703,
    "links": [
      {
        "type": "keyword",
        "path": "data/usa/keyword/laconia-rochester",
        "color": "blue"
      }
    ]
  },
  {
    "name": "Rochester, NH",
    "lat": 43.3045,
    "lng": -70.9756,
    "links": [
      {
        "type": "keyword",
        "path": "data/usa/keyword/laconia-rochester",
        "color": "blue"
      }
    ]
  },

  {
    "name": "Tallahassee, FL",
    "lat": 30.4383,
    "lng": -84.2807,
    "links": [
      {
        "type": "HI-TEK",
        "path": "data/usa/hitek/tallahassee",
        "color": "blue"
      }
    ]
  },
  {
    "name": "Pensacola, FL",
    "lat": 30.4213,
    "lng": -87.2169,
    "links": [
      {
        "type": "HI-TEK",
        "path": "data/usa/hitek/pensacola",
        "color": "blue"
      }
    ]
  },
  {
    "name": "Gainesville, FL",
    "lat": 29.6526,
    "lng": -82.3437,
    "links": [
      {
        "type": "HI-TEK",
        "path": "data/usa/hitek/gainesville",
        "color": "blue"
      },
      {
        "type": "SOS",
        "path": "data/usa/sos/gainesville",
        "color": "blue"
      }
    ]
  },
  {
    "name": "Tampa, FL",
    "lat": 27.9506,
    "lng": -82.4572,
    "links": [
      {
        "type": "HI-TEK",
        "path": "data/usa/hitek/tampa",
        "color": "blue"
      },
      {
        "type": "SOS",
        "path": "data/usa/sos/tampa",
        "color": "blue"
      }
    ]
  },
  {
    "name": "Orlando, FL",
    "lat": 28.60468,
    "lng": -81.20483,
    "links": [
      {
        "type": "HI-TEK",
        "path": "data/usa/hitek/orlando",
        "color": "blue"
      },
      {
        "type": "SOS",
        "path": "data/usa/sos/orlando",
        "color": "blue"
      }
    ]
  },
  {
    "name": "Miami, FL",
    "lat": 25.761681,
    "lng": -80.191788,
    "links": [
      {
        "type": "HI-TEK",
        "path": "data/usa/hitek/miami",
        "color": "blue"
      },
      {
        "type": "SOS",
        "path": "data/usa/sos/miami",
        "color": "blue"
      }
    ]
  },
  {
    "name": "Jacksonville, FL",
    "lat": 30.332184,
    "lng": -81.655647,
    "links": [
      {
        "type": "SOS",
        "path": "data/usa/sos/jacksonville",
        "color": "blue"
      }
    ]
  },
  {
    "name": "Pittsburgh, PA",
    "lat": 40.4406,
    "lng": -79.9959,
    "links": [
      {
        "type": "SOS",
        "path": "data/usa/sos/pittsburgh",
        "color": "blue"
      },
      {
        "type": "keyword",
        "path": "data/usa/keyword/pittsburgh-wilkinsburg",
        "color": "blue"
      }
    ]
  },
  {
    "name": "Wilkinsburg, PA",
    "lat": 40.4418,
    "lng": -79.8737,
    "links": [
      {
        "type": "keyword",
        "path": "data/usa/keyword/pittsburgh-wilkinsburg",
        "color": "blue"
      }
    ]
  },
  {
    "name": "New Hope, PA",
    "lat": 40.3643,
    "lng": -74.9513,
    "links": [
      {
        "type": "keyword",
        "path": "data/usa/keyword/new_hope",
        "color": "blue"
      }
    ]
  },
  {
    "name": "Allentown, PA",
    "lat": 40.6084,
    "lng": -75.4902,
    "links": [
      {
        "type": "keyword",
        "path": "data/usa/keyword/allentown-bethlehem-bristol-churchville-philadelphia-warrington",
        "color": "blue"
      }
    ]
  },
  {
    "name": "Bethlehem, PA",
    "lat": 40.6259,
    "lng": -75.3705,
    "links": [
      {
        "type": "keyword",
        "path": "data/usa/keyword/allentown-bethlehem-bristol-churchville-philadelphia-warrington",
        "color": "blue"
      }
    ]
  },
  {
    "name": "Bristol, PA",
    "lat": 40.1001,
    "lng": -74.8516,
    "links": [
      {
        "type": "keyword",
        "path": "data/usa/keyword/allentown-bethlehem-bristol-churchville-philadelphia-warrington",
        "color": "blue"
      }
    ]
  },
  {
    "name": "Churchville, PA",
    "lat": 40.1957,
    "lng": -75.0127,
    "links": [
      {
        "type": "keyword",
        "path": "data/usa/keyword/allentown-bethlehem-bristol-churchville-philadelphia-warrington",
        "color": "blue"
      }
    ]
  },
  {
    "name": "Philadelphia, PA",
    "lat": 39.9526,
    "lng": -75.1652,
    "links": [
      {
        "type": "keyword",
        "path": "data/usa/keyword/allentown-bethlehem-bristol-churchville-philadelphia-warrington",
        "color": "blue"
      }
    ]
  },
  {
    "name": "Warrington, PA",
    "lat": 40.2490,
    "lng": -75.1374,
    "links": [
      {
        "type": "keyword",
        "path": "data/usa/keyword/allentown-bethlehem-bristol-churchville-philadelphia-warrington",
        "color": "blue"
      }
    ]
  },
  {
    "name": "Norristown, PA",
    "lat": 40.1215,
    "lng": -75.3399,
    "links": [
      {
        "type": "keyword",
        "path": "data/usa/keyword/norristown",
        "color": "blue"
      }
    ]
  },
  {
    "name": "Scranton, PA",
    "lat": 41.4089,
    "lng": -75.6624,
    "links": [
      {
        "type": "keyword",
        "path": "data/usa/keyword/scranton",
        "color": "blue"
      }
    ]
  },
  {
    "name": "Bloomsburg, PA",
    "lat": 41.0037,
    "lng": -76.4541,
    "links": [
      {
        "type": "keyword",
        "path": "data/usa/keyword/bloomsburg-pittston",
        "color": "blue"
      }
    ]
  },
  {
    "name": "Pittston, PA",
    "lat": 41.3256,
    "lng": -75.7897,
    "links": [
      {
        "type": "keyword",
        "path": "data/usa/keyword/bloomsburg-pittston",
        "color": "blue"
      }
    ]
  },
  {
    "name": "Reading, PA",
    "lat": 40.3356,
    "lng": -75.9269,
    "links": [
      {
        "type": "keyword",
        "path": "data/usa/keyword/reading",
        "color": "blue"
      }
    ]
  },
  {
    "name": "Wilkes-Barre, PA",
    "lat": 41.2459,
    "lng": -75.8813,
    "links": [
      {
        "type": "keyword",
        "path": "data/usa/keyword/wilkes_barre",
        "color": "blue"
      }
    ]
  },
  {
    "name": "Lancaster, PA",
    "lat": 40.0379,
    "lng": -76.3055,
    "links": [
      {
        "type": "keyword",
        "path": "data/usa/keyword/lancaster",
        "color": "blue"
      }
    ]
  },
  {
    "name": "Camp Hill, PA",
    "lat": 40.2393,
    "lng": -76.9194,
    "links": [
      {
        "type": "keyword",
        "path": "data/usa/keyword/camp_hill-harrisburg-york",
        "color": "blue"
      }
    ]
  },
  {
    "name": "Harrisburg, PA",
    "lat": 40.2732,
    "lng": -76.8867,
    "links": [
      {
        "type": "keyword",
        "path": "data/usa/keyword/camp_hill-harrisburg-york",
        "color": "blue"
      }
    ]
  },
  {
    "name": "York, PA",
    "lat": 39.9626,
    "lng": -76.7277,
    "links": [
      {
        "type": "keyword",
        "path": "data/usa/keyword/camp_hill-harrisburg-york",
        "color": "blue"
      }
    ]
  },
  {
    "name": "Sunbury, PA",
    "lat": 40.8615,
    "lng": -76.7897,
    "links": [
      {
        "type": "keyword",
        "path": "data/usa/keyword/sunbury",
        "color": "blue"
      }
    ]
  },
  {
    "name": "Bellefonte, PA",
    "lat": 40.9126,
    "lng": -77.7783,
    "links": [
      {
        "type": "keyword",
        "path": "data/usa/keyword/bellefonte-state_college",
        "color": "blue"
      }
    ]
  },
  {
    "name": "State College, PA",
    "lat": 40.7934,
    "lng": -77.8600,
    "links": [
      {
        "type": "keyword",
        "path": "data/usa/keyword/bellefonte-state_college",
        "color": "blue"
      }
    ]
  },
  {
    "name": "Altoona, PA",
    "lat": 40.5187,
    "lng": -78.3947,
    "links": [
      {
        "type": "keyword",
        "path": "data/usa/keyword/altoona",
        "color": "blue"
      }
    ]
  },
  {
    "name": "Johnstown, PA",
    "lat": 40.3267,
    "lng": -78.9219,
    "links": [
      {
        "type": "keyword",
        "path": "data/usa/keyword/johnstown",
        "color": "blue"
      }
    ]
  },
  {
    "name": "Warren, PA",
    "lat": 41.8437,
    "lng": -79.1456,
    "links": [
      {
        "type": "keyword",
        "path": "data/usa/keyword/warren",
        "color": "blue"
      }
    ]
  },
  {
    "name": "Bedford, PA",
    "lat": 40.0184,
    "lng": -78.5039,
    "links": [
      {
        "type": "keyword",
        "path": "data/usa/keyword/bedford",
        "color": "blue"
      }
    ]
  },
  {
    "name": "New Castle, PA",
    "lat": 40.9970,
    "lng": -80.3470,
    "links": [
      {
        "type": "keyword",
        "path": "data/usa/keyword/new_castle",
        "color": "blue"
      }
    ]
  },
  {
    "name": "Providence, RI",
    "lat": 41.8240,
    "lng": -71.4128,
    "links": [
      {
        "type": "keyword",
        "path": "data/usa/keyword/providence",
        "color": "blue"
      }
    ]
  },
  {
    "name": "Morgantown, WV",
    "lat": 39.6295,
    "lng": -79.9559,
    "links": [
      {
        "type": "keyword",
        "path": "data/usa/keyword/morgantown",
        "color": "blue"
      }
    ]
  },
  {
    "name": "Burlington, VT",
    "lat": 44.4759,
    "lng": -73.2121,
    "links": [
      {
        "type": "keyword",
        "path": "data/usa/keyword/burlington-south_burlington-essex",
        "color": "blue"
      }
    ]
  },
  {
    "name": "South Burlington, VT",
    "lat": 44.4664,
    "lng": -73.1710,
    "links": [
      {
        "type": "keyword",
        "path": "data/usa/keyword/burlington-south_burlington-essex",
        "color": "blue"
      }
    ]
  },
  {
    "name": "Essex, VT",
    "lat": 44.4926,
    "lng": -73.1010,
    "links": [
      {
        "type": "keyword",
        "path": "data/usa/keyword/burlington-south_burlington-essex",
        "color": "blue"
      }
    ]
  }
]
