[
  {
    "name": "Carson, CA",
    "lat": 33.8314,
    "lng": -118.2820,
    "links": [
      {
        "type": "HI-TEK",
        "path": "data/NorthAmerica/usa/hitek/areaA",
        "color": "blue"
      },
      {
        "type": "YESG2M(PLS)",
        "path": "data/NorthAmerica/usa/pls/area1",
        "color": "blue"
      }
    ]
  },
  {
    "name": "Compton, CA",
    "lat": 33.8958,
    "lng": -118.2201,
    "links": [
      {
        "type": "HI-TEK",
        "path": "data/NorthAmerica/usa/hitek/areaA",
        "color": "blue"
      },
      {
        "type": "YESG2M(PLS)",
        "path": "data/NorthAmerica/usa/pls/area1",
        "color": "blue"
      }
    ]
  },
  {
    "name": "Dominguez Hills, CA",
    "lat": 33.8645,
    "lng": -118.2568,
    "links": [
      {
        "type": "HI-TEK",
        "path": "data/NorthAmerica/usa/hitek/areaA",
        "color": "blue"
      },
      {
        "type": "YESG2M(PLS)",
        "path": "data/NorthAmerica/usa/pls/area1",
        "color": "blue"
      }
    ]
  },
  {
    "name": "Gardena, CA",
    "lat": 33.8883,
    "lng": -118.3089,
    "links": [
      {
        "type": "HI-TEK",
        "path": "data/NorthAmerica/usa/hitek/areaA",
        "color": "blue"
      },
      {
        "type": "YESG2M(PLS)",
        "path": "data/NorthAmerica/usa/pls/area1",
        "color": "blue"
      }
    ]
  },
  {
    "name": "Rancho Dominguez, CA",
    "lat": 33.8737,
    "lng": -118.2223,
    "links": [
      {
        "type": "HI-TEK",
        "path": "data/NorthAmerica/usa/hitek/areaA",
        "color": "blue"
      },
      {
        "type": "YESG2M(PLS)",
        "path": "data/NorthAmerica/usa/pls/area1",
        "color": "blue"
      }
    ]
  },
  {
    "name": "San Pedro, CA",
    "lat": 33.7361,
    "lng": -118.2923,
    "links": [
      {
        "type": "HI-TEK",
        "path": "data/NorthAmerica/usa/hitek/areaA",
        "color": "blue"
      },
      {
        "type": "YESG2M(PLS)",
        "path": "data/NorthAmerica/usa/pls/area1",
        "color": "blue"
      }
    ]
  },
  {
    "name": "Artesia, CA",
    "lat": 33.8658,
    "lng": -118.0831,
    "links": [
      {
        "type": "HI-TEK",
        "path": "data/NorthAmerica/usa/hitek/areaB",
        "color": "blue"
      },
      {
        "type": "YESG2M(PLS)",
        "path": "data/NorthAmerica/usa/pls/area2",
        "color": "blue"
      }
    ]
  },
  {
    "name": "Bell Garden, CA",
    "lat": 33.9653,
    "lng": -118.1515,
    "links": [
      {
        "type": "HI-TEK",
        "path": "data/NorthAmerica/usa/hitek/areaB",
        "color": "blue"
      },
      {
        "type": "YESG2M(PLS)",
        "path": "data/NorthAmerica/usa/pls/area2",
        "color": "blue"
      }
    ]
  },
  {
    "name": "Bradbury, CA",
    "lat": 34.1478,
    "lng": -117.9701,
    "links": [
      {
        "type": "HI-TEK",
        "path": "data/NorthAmerica/usa/hitek/areaB",
        "color": "blue"
      },
      {
        "type": "YESG2M(PLS)",
        "path": "data/NorthAmerica/usa/pls/area2",
        "color": "blue"
      }
    ]
  },
  {
    "name": "Brentwood, CA",
    "lat": 37.9319,
    "lng": -121.6958,
    "links": [
      {
        "type": "HI-TEK",
        "path": "data/NorthAmerica/usa/hitek/areaB",
        "color": "blue"
      },
      {
        "type": "YESG2M(PLS)",
        "path": "data/NorthAmerica/usa/pls/area2",
        "color": "blue"
      }
    ]
  },
  {
    "name": "Bellflower, CA",
    "lat": 33.8817,
    "lng": -118.1170,
    "links": [
      {
        "type": "HI-TEK",
        "path": "data/NorthAmerica/usa/hitek/areaB",
        "color": "blue"
      },
      {
        "type": "YESG2M(PLS)",
        "path": "data/NorthAmerica/usa/pls/area2",
        "color": "blue"
      }
    ]
  },
  {
    "name": "Cerritos, CA",
    "lat": 33.8583,
    "lng": -118.0648,
    "links": [
      {
        "type": "HI-TEK",
        "path": "data/NorthAmerica/usa/hitek/areaB",
        "color": "blue"
      },
      {
        "type": "YESG2M(PLS)",
        "path": "data/NorthAmerica/usa/pls/area2",
        "color": "blue"
      }
    ]
  },
  {
    "name": "City of Commerce, CA",
    "lat": 34.0006,
    "lng": -118.1560,
    "links": [
      {
        "type": "HI-TEK",
        "path": "data/NorthAmerica/usa/hitek/areaB",
        "color": "blue"
      },
      {
        "type": "YESG2M(PLS)",
        "path": "data/NorthAmerica/usa/pls/area2",
        "color": "blue"
      }
    ]
  },
  {
    "name": "Culver City, CA",
    "lat": 34.0211,
    "lng": -118.3965,
    "links": [
      {
        "type": "HI-TEK",
        "path": "data/NorthAmerica/usa/hitek/areaB",
        "color": "blue"
      },
      {
        "type": "YESG2M(PLS)",
        "path": "data/NorthAmerica/usa/pls/area2",
        "color": "blue"
      }
    ]
  },
  {
    "name": "Cypress, CA",
    "lat": 33.8160,
    "lng": -118.0373,
    "links": [
      {
        "type": "HI-TEK",
        "path": "data/NorthAmerica/usa/hitek/areaB",
        "color": "blue"
      },
      {
        "type": "YESG2M(PLS)",
        "path": "data/NorthAmerica/usa/pls/area2",
        "color": "blue"
      }
    ]
  },
  {
    "name": "Downey, CA",
    "lat": 33.9401,
    "lng": -118.1332,
    "links": [
      {
        "type": "HI-TEK",
        "path": "data/NorthAmerica/usa/hitek/areaB",
        "color": "blue"
      },
      {
        "type": "YESG2M(PLS)",
        "path": "data/NorthAmerica/usa/pls/area2",
        "color": "blue"
      }
    ]
  },
  {
    "name": "El Segundo, CA",
    "lat": 33.9192,
    "lng": -118.4165,
    "links": [
      {
        "type": "HI-TEK",
        "path": "data/NorthAmerica/usa/hitek/areaB",
        "color": "blue"
      },
      {
        "type": "YESG2M(PLS)",
        "path": "data/NorthAmerica/usa/pls/area2",
        "color": "blue"
      }
    ]
  },
  {
    "name": "Florence, CA",
    "lat": 33.9740,
    "lng": -118.2441,
    "links": [
      {
        "type": "HI-TEK",
        "path": "data/NorthAmerica/usa/hitek/areaB",
        "color": "blue"
      },
      {
        "type": "YESG2M(PLS)",
        "path": "data/NorthAmerica/usa/pls/area2",
        "color": "blue"
      }
    ]
  },
  {
    "name": "Hancock Park, CA",
    "lat": 34.0722,
    "lng": -118.3287,
    "links": [
      {
        "type": "HI-TEK",
        "path": "data/NorthAmerica/usa/hitek/areaB",
        "color": "blue"
      },
      {
        "type": "YESG2M(PLS)",
        "path": "data/NorthAmerica/usa/pls/area2",
        "color": "blue"
      }
    ]
  },
  {
    "name": "Harbor City, CA",
    "lat": 33.7908,
    "lng": -118.2961,
    "links": [
      {
        "type": "HI-TEK",
        "path": "data/NorthAmerica/usa/hitek/areaB",
        "color": "blue"
      },
      {
        "type": "YESG2M(PLS)",
        "path": "data/NorthAmerica/usa/pls/area2",
        "color": "blue"
      }
    ]
  },
  {
    "name": "Hawaiian Garden, CA",
    "lat": 33.8281,
    "lng": -118.0728,
    "links": [
      {
        "type": "HI-TEK",
        "path": "data/NorthAmerica/usa/hitek/areaB",
        "color": "blue"
      },
      {
        "type": "YESG2M(PLS)",
        "path": "data/NorthAmerica/usa/pls/area2",
        "color": "blue"
      }
    ]
  },
  {
    "name": "Hawthorne, CA",
    "lat": 33.9164,
    "lng": -118.3510,
    "links": [
      {
        "type": "HI-TEK",
        "path": "data/NorthAmerica/usa/hitek/areaB",
        "color": "blue"
      },
      {
        "type": "YESG2M(PLS)",
        "path": "data/NorthAmerica/usa/pls/area2",
        "color": "blue"
      }
    ]
  },
  {
    "name": "Highland Park, CA",
    "lat": 34.1114,
    "lng": -118.1853,
    "links": [
      {
        "type": "HI-TEK",
        "path": "data/NorthAmerica/usa/hitek/areaB",
        "color": "blue"
      },
      {
        "type": "YESG2M(PLS)",
        "path": "data/NorthAmerica/usa/pls/area2",
        "color": "blue"
      }
    ]
  },
  {
    "name": "Huntington Park, CA",
    "lat": 33.9817,
    "lng": -118.2251,
    "links": [
      {
        "type": "HI-TEK",
        "path": "data/NorthAmerica/usa/hitek/areaB",
        "color": "blue"
      },
      {
        "type": "YESG2M(PLS)",
        "path": "data/NorthAmerica/usa/pls/area2",
        "color": "blue"
      }
    ]
  },
  {
    "name": "Inglewood, CA",
    "lat": 33.9617,
    "lng": -118.3531,
    "links": [
      {
        "type": "HI-TEK",
        "path": "data/NorthAmerica/usa/hitek/areaB",
        "color": "blue"
      },
      {
        "type": "YESG2M(PLS)",
        "path": "data/NorthAmerica/usa/pls/area2",
        "color": "blue"
      }
    ]
  },
  {
    "name": "Irwindale, CA",
    "lat": 34.1068,
    "lng": -117.9353,
    "links": [
      {
        "type": "HI-TEK",
        "path": "data/NorthAmerica/usa/hitek/areaB",
        "color": "blue"
      },
      {
        "type": "YESG2M(PLS)",
        "path": "data/NorthAmerica/usa/pls/area2",
        "color": "blue"
      }
    ]
  },
  {
    "name": "Lakewood, CA",
    "lat": 33.8536,
    "lng": -118.1339,
    "links": [
      {
        "type": "HI-TEK",
        "path": "data/NorthAmerica/usa/hitek/areaB",
        "color": "blue"
      },
      {
        "type": "YESG2M(PLS)",
        "path": "data/NorthAmerica/usa/pls/area2",
        "color": "blue"
      }
    ]
  },
  {
    "name": "Lawndale, CA",
    "lat": 33.8872,
    "lng": -118.3526,
    "links": [
      {
        "type": "HI-TEK",
        "path": "data/NorthAmerica/usa/hitek/areaB",
        "color": "blue"
      },
      {
        "type": "YESG2M(PLS)",
        "path": "data/NorthAmerica/usa/pls/area2",
        "color": "blue"
      }
    ]
  },
  {
    "name": "Lomita, CA",
    "lat": 33.7922,
    "lng": -118.3151,
    "links": [
      {
        "type": "HI-TEK",
        "path": "data/NorthAmerica/usa/hitek/areaB",
        "color": "blue"
      },
      {
        "type": "YESG2M(PLS)",
        "path": "data/NorthAmerica/usa/pls/area2",
        "color": "blue"
      }
    ]
  },
  {
    "name": "Long Beach, CA",
    "lat": 33.7701,
    "lng": -118.1937,
    "links": [
      {
        "type": "HI-TEK",
        "path": "data/NorthAmerica/usa/hitek/areaB",
        "color": "blue"
      },
      {
        "type": "YESG2M(PLS)",
        "path": "data/NorthAmerica/usa/pls/area2",
        "color": "blue"
      }
    ]
  },
  {
    "name": "Lynwood, CA",
    "lat": 33.9303,
    "lng": -118.2115,
    "links": [
      {
        "type": "HI-TEK",
        "path": "data/NorthAmerica/usa/hitek/areaB",
        "color": "blue"
      },
      {
        "type": "YESG2M(PLS)",
        "path": "data/NorthAmerica/usa/pls/area2",
        "color": "blue"
      }
    ]
  },
  {
    "name": "La Palma, CA",
    "lat": 33.8492,
    "lng": -118.0467,
    "links": [
      {
        "type": "HI-TEK",
        "path": "data/NorthAmerica/usa/hitek/areaB",
        "color": "blue"
      },
      {
        "type": "YESG2M(PLS)",
        "path": "data/NorthAmerica/usa/pls/area2",
        "color": "blue"
      }
    ]
  },
  {
    "name": "Los Alamitos, CA",
    "lat": 33.8031,
    "lng": -118.0728,
    "links": [
      {
        "type": "HI-TEK",
        "path": "data/NorthAmerica/usa/hitek/areaB",
        "color": "blue"
      },
      {
        "type": "YESG2M(PLS)",
        "path": "data/NorthAmerica/usa/pls/area2",
        "color": "blue"
      }
    ]
  },
  {
    "name": "Los Angeles, CA",
    "lat": 34.0522,
    "lng": -118.2437,
    "links": [
      {
        "type": "HI-TEK",
        "path": "data/NorthAmerica/usa/hitek/areaB",
        "color": "blue"
      },
      {
        "type": "YESG2M(PLS)",
        "path": "data/NorthAmerica/usa/pls/area2",
        "color": "blue"
      }
    ]
  },
  {
    "name": "Montebello, CA",
    "lat": 34.0165,
    "lng": -118.1138,
    "links": [
      {
        "type": "HI-TEK",
        "path": "data/NorthAmerica/usa/hitek/areaB",
        "color": "blue"
      },
      {
        "type": "YESG2M(PLS)",
        "path": "data/NorthAmerica/usa/pls/area2",
        "color": "blue"
      }
    ]
  },
  {
    "name": "Norwalk, CA",
    "lat": 33.9022,
    "lng": -118.0817,
    "links": [
      {
        "type": "HI-TEK",
        "path": "data/NorthAmerica/usa/hitek/areaB",
        "color": "blue"
      },
      {
        "type": "YESG2M(PLS)",
        "path": "data/NorthAmerica/usa/pls/area2",
        "color": "blue"
      }
    ]
  },
  {
    "name": "Palos Verdes, CA",
    "lat": 33.7878,
    "lng": -118.4037,
    "links": [
      {
        "type": "HI-TEK",
        "path": "data/NorthAmerica/usa/hitek/areaB",
        "color": "blue"
      },
      {
        "type": "YESG2M(PLS)",
        "path": "data/NorthAmerica/usa/pls/area2",
        "color": "blue"
      }
    ]
  },
  {
    "name": "Paramount, CA",
    "lat": 33.8895,
    "lng": -118.1598,
    "links": [
      {
        "type": "HI-TEK",
        "path": "data/NorthAmerica/usa/hitek/areaB",
        "color": "blue"
      },
      {
        "type": "YESG2M(PLS)",
        "path": "data/NorthAmerica/usa/pls/area2",
        "color": "blue"
      }
    ]
  },
  {
    "name": "Park La Brea, CA",
    "lat": 34.0721,
    "lng": -118.3554,
    "links": [
      {
        "type": "HI-TEK",
        "path": "data/NorthAmerica/usa/hitek/areaB",
        "color": "blue"
      },
      {
        "type": "YESG2M(PLS)",
        "path": "data/NorthAmerica/usa/pls/area2",
        "color": "blue"
      }
    ]
  },
  {
    "name": "Rancho Palos Verdes, CA",
    "lat": 33.7445,
    "lng": -118.3870,
    "links": [
      {
        "type": "HI-TEK",
        "path": "data/NorthAmerica/usa/hitek/areaB",
        "color": "blue"
      },
      {
        "type": "YESG2M(PLS)",
        "path": "data/NorthAmerica/usa/pls/area2",
        "color": "blue"
      }
    ]
  },
  {
    "name": "Redondo Beach, CA",
    "lat": 33.8492,
    "lng": -118.3884,
    "links": [
      {
        "type": "HI-TEK",
        "path": "data/NorthAmerica/usa/hitek/areaB",
        "color": "blue"
      },
      {
        "type": "YESG2M(PLS)",
        "path": "data/NorthAmerica/usa/pls/area2",
        "color": "blue"
      }
    ]
  },
  {
    "name": "Rolling Hills Estate, CA",
    "lat": 33.7874,
    "lng": -118.3580,
    "links": [
      {
        "type": "HI-TEK",
        "path": "data/NorthAmerica/usa/hitek/areaB",
        "color": "blue"
      },
      {
        "type": "YESG2M(PLS)",
        "path": "data/NorthAmerica/usa/pls/area2",
        "color": "blue"
      }
    ]
  },
  {
    "name": "Santa Fe Springs, CA",
    "lat": 33.9472,
    "lng": -118.0831,
    "links": [
      {
        "type": "HI-TEK",
        "path": "data/NorthAmerica/usa/hitek/areaB",
        "color": "blue"
      },
      {
        "type": "YESG2M(PLS)",
        "path": "data/NorthAmerica/usa/pls/area2",
        "color": "blue"
      }
    ]
  },
  {
    "name": "Seal Beach, CA",
    "lat": 33.7414,
    "lng": -118.1048,
    "links": [
      {
        "type": "HI-TEK",
        "path": "data/NorthAmerica/usa/hitek/areaB",
        "color": "blue"
      },
      {
        "type": "YESG2M(PLS)",
        "path": "data/NorthAmerica/usa/pls/area2",
        "color": "blue"
      }
    ]
  },
  {
    "name": "South Gate, CA",
    "lat": 33.9547,
    "lng": -118.2120,
    "links": [
      {
        "type": "HI-TEK",
        "path": "data/NorthAmerica/usa/hitek/areaB",
        "color": "blue"
      },
      {
        "type": "YESG2M(PLS)",
        "path": "data/NorthAmerica/usa/pls/area2",
        "color": "blue"
      }
    ]
  },
  {
    "name": "Temple City, CA",
    "lat": 34.1072,
    "lng": -118.0578,
    "links": [
      {
        "type": "HI-TEK",
        "path": "data/NorthAmerica/usa/hitek/areaB",
        "color": "blue"
      },
      {
        "type": "YESG2M(PLS)",
        "path": "data/NorthAmerica/usa/pls/area2",
        "color": "blue"
      }
    ]
  },
  {
    "name": "Torrance, CA",
    "lat": 33.8358,
    "lng": -118.3406,
    "links": [
      {
        "type": "HI-TEK",
        "path": "data/NorthAmerica/usa/hitek/areaB",
        "color": "blue"
      },
      {
        "type": "YESG2M(PLS)",
        "path": "data/NorthAmerica/usa/pls/area2",
        "color": "blue"
      }
    ]
  },
  {
    "name": "Vernon, CA",
    "lat": 34.0039,
    "lng": -118.2300,
    "links": [
      {
        "type": "HI-TEK",
        "path": "data/NorthAmerica/usa/hitek/areaB",
        "color": "blue"
      },
      {
        "type": "YESG2M(PLS)",
        "path": "data/NorthAmerica/usa/pls/area2",
        "color": "blue"
      }
    ]
  },
  {
    "name": "Westwood, CA",
    "lat": 34.0635,
    "lng": -118.4455,
    "links": [
      {
        "type": "HI-TEK",
        "path": "data/NorthAmerica/usa/hitek/areaB",
        "color": "blue"
      },
      {
        "type": "YESG2M(PLS)",
        "path": "data/NorthAmerica/usa/pls/area2",
        "color": "blue"
      }
    ]
  },
  {
    "name": "Wilmington, CA",
    "lat": 33.7804,
    "lng": -118.2619,
    "links": [
      {
        "type": "HI-TEK",
        "path": "data/NorthAmerica/usa/hitek/areaB",
        "color": "blue"
      },
      {
        "type": "YESG2M(PLS)",
        "path": "data/NorthAmerica/usa/pls/area2",
        "color": "blue"
      }
    ]
  },
  {
    "name": "Alhambra, CA",
    "lat": 34.0953,
    "lng": -118.1270,
    "links": [
      {
        "type": "HI-TEK",
        "path": "data/NorthAmerica/usa/hitek/areaC",
        "color": "blue"
      },
      {
        "type": "YESG2M(PLS)",
        "path": "data/NorthAmerica/usa/pls/area3",
        "color": "blue"
      }
    ]
  },
  {
    "name": "Anaheim, CA",
    "lat": 33.8366,
    "lng": -117.9143,
    "links": [
      {
        "type": "HI-TEK",
        "path": "data/NorthAmerica/usa/hitek/areaC",
        "color": "blue"
      },
      {
        "type": "YESG2M(PLS)",
        "path": "data/NorthAmerica/usa/pls/area3",
        "color": "blue"
      }
    ]
  },
  {
    "name": "Beverly Hills, CA",
    "lat": 34.0736,
    "lng": -118.4004,
    "links": [
      {
        "type": "HI-TEK",
        "path": "data/NorthAmerica/usa/hitek/areaC",
        "color": "blue"
      },
      {
        "type": "YESG2M(PLS)",
        "path": "data/NorthAmerica/usa/pls/area3",
        "color": "blue"
      }
    ]
  },
  {
    "name": "Buena Park, CA",
    "lat": 33.8675,
    "lng": -117.9981,
    "links": [
      {
        "type": "HI-TEK",
        "path": "data/NorthAmerica/usa/hitek/areaC",
        "color": "blue"
      },
      {
        "type": "YESG2M(PLS)",
        "path": "data/NorthAmerica/usa/pls/area3",
        "color": "blue"
      }
    ]
  },
  {
    "name": "Baldwin Park, CA",
    "lat": 34.0853,
    "lng": -117.9609,
    "links": [
      {
        "type": "HI-TEK",
        "path": "data/NorthAmerica/usa/hitek/areaC",
        "color": "blue"
      },
      {
        "type": "YESG2M(PLS)",
        "path": "data/NorthAmerica/usa/pls/area3",
        "color": "blue"
      }
    ]
  },
  {
    "name": "City of Industry, CA",
    "lat": 34.0115,
    "lng": -117.9495,
    "links": [
      {
        "type": "HI-TEK",
        "path": "data/NorthAmerica/usa/hitek/areaC",
        "color": "blue"
      },
      {
        "type": "YESG2M(PLS)",
        "path": "data/NorthAmerica/usa/pls/area3",
        "color": "blue"
      }
    ]
  },
  {
    "name": "Costa Mesa, CA",
    "lat": 33.6411,
    "lng": -117.9187,
    "links": [
      {
        "type": "HI-TEK",
        "path": "data/NorthAmerica/usa/hitek/areaC",
        "color": "blue"
      },
      {
        "type": "YESG2M(PLS)",
        "path": "data/NorthAmerica/usa/pls/area3",
        "color": "blue"
      }
    ]
  },
  {
    "name": "Echo Park, CA",
    "lat": 34.0782,
    "lng": -118.2606,
    "links": [
      {
        "type": "HI-TEK",
        "path": "data/NorthAmerica/usa/hitek/areaC",
        "color": "blue"
      },
      {
        "type": "YESG2M(PLS)",
        "path": "data/NorthAmerica/usa/pls/area3",
        "color": "blue"
      }
    ]
  },
  {
    "name": "Fountain Valley, CA",
    "lat": 33.7092,
    "lng": -117.9537,
    "links": [
      {
        "type": "HI-TEK",
        "path": "data/NorthAmerica/usa/hitek/areaC",
        "color": "blue"
      },
      {
        "type": "YESG2M(PLS)",
        "path": "data/NorthAmerica/usa/pls/area3",
        "color": "blue"
      }
    ]
  },
  {
    "name": "Fullerton, CA",
    "lat": 33.8704,
    "lng": -117.9243,
    "links": [
      {
        "type": "HI-TEK",
        "path": "data/NorthAmerica/usa/hitek/areaC",
        "color": "blue"
      },
      {
        "type": "YESG2M(PLS)",
        "path": "data/NorthAmerica/usa/pls/area3",
        "color": "blue"
      }
    ]
  },
  {
    "name": "Garden Grove, CA",
    "lat": 33.7743,
    "lng": -117.9370,
    "links": [
      {
        "type": "HI-TEK",
        "path": "data/NorthAmerica/usa/hitek/areaC",
        "color": "blue"
      },
      {
        "type": "YESG2M(PLS)",
        "path": "data/NorthAmerica/usa/pls/area3",
        "color": "blue"
      }
    ]
  },
  {
    "name": "Hermosa Beach, CA",
    "lat": 33.8622,
    "lng": -118.3995,
    "links": [
      {
        "type": "HI-TEK",
        "path": "data/NorthAmerica/usa/hitek/areaC",
        "color": "blue"
      },
      {
        "type": "YESG2M(PLS)",
        "path": "data/NorthAmerica/usa/pls/area3",
        "color": "blue"
      }
    ]
  },
  {
    "name": "Hollywood, CA",
    "lat": 34.0980,
    "lng": -118.3295,
    "links": [
      {
        "type": "HI-TEK",
        "path": "data/NorthAmerica/usa/hitek/areaC",
        "color": "blue"
      },
      {
        "type": "YESG2M(PLS)",
        "path": "data/NorthAmerica/usa/pls/area3",
        "color": "blue"
      }
    ]
  },
  {
    "name": "Hollywood Hills, CA",
    "lat": 34.1177,
    "lng": -118.3520,
    "links": [
      {
        "type": "HI-TEK",
        "path": "data/NorthAmerica/usa/hitek/areaC",
        "color": "blue"
      },
      {
        "type": "YESG2M(PLS)",
        "path": "data/NorthAmerica/usa/pls/area3",
        "color": "blue"
      }
    ]
  },
  {
    "name": "Huntington Beach, CA",
    "lat": 33.6603,
    "lng": -117.9992,
    "links": [
      {
        "type": "HI-TEK",
        "path": "data/NorthAmerica/usa/hitek/areaC",
        "color": "blue"
      },
      {
        "type": "YESG2M(PLS)",
        "path": "data/NorthAmerica/usa/pls/area3",
        "color": "blue"
      }
    ]
  },
  {
    "name": "La Habra, CA",
    "lat": 33.9319,
    "lng": -117.9464,
    "links": [
      {
        "type": "HI-TEK",
        "path": "data/NorthAmerica/usa/hitek/areaC",
        "color": "blue"
      },
      {
        "type": "YESG2M(PLS)",
        "path": "data/NorthAmerica/usa/pls/area3",
        "color": "blue"
      }
    ]
  },
  {
    "name": "La Mirada, CA",
    "lat": 33.9172,
    "lng": -118.0120,
    "links": [
      {
        "type": "HI-TEK",
        "path": "data/NorthAmerica/usa/hitek/areaC",
        "color": "blue"
      },
      {
        "type": "YESG2M(PLS)",
        "path": "data/NorthAmerica/usa/pls/area3",
        "color": "blue"
      }
    ]
  },
  {
    "name": "La Puente, CA",
    "lat": 34.0200,
    "lng": -117.9495,
    "links": [
      {
        "type": "HI-TEK",
        "path": "data/NorthAmerica/usa/hitek/areaC",
        "color": "blue"
      },
      {
        "type": "YESG2M(PLS)",
        "path": "data/NorthAmerica/usa/pls/area3",
        "color": "blue"
      }
    ]
  },
  {
    "name": "Manhattan Beach, CA",
    "lat": 33.8847,
    "lng": -118.4109,
    "links": [
      {
        "type": "HI-TEK",
        "path": "data/NorthAmerica/usa/hitek/areaC",
        "color": "blue"
      },
      {
        "type": "YESG2M(PLS)",
        "path": "data/NorthAmerica/usa/pls/area3",
        "color": "blue"
      }
    ]
  },
  {
    "name": "Marina del Rey, CA",
    "lat": 33.9803,
    "lng": -118.4517,
    "links": [
      {
        "type": "HI-TEK",
        "path": "data/NorthAmerica/usa/hitek/areaC",
        "color": "blue"
      },
      {
        "type": "YESG2M(PLS)",
        "path": "data/NorthAmerica/usa/pls/area3",
        "color": "blue"
      }
    ]
  },
  {
    "name": "Monterey Park, CA",
    "lat": 34.0625,
    "lng": -118.1228,
    "links": [
      {
        "type": "HI-TEK",
        "path": "data/NorthAmerica/usa/hitek/areaC",
        "color": "blue"
      },
      {
        "type": "YESG2M(PLS)",
        "path": "data/NorthAmerica/usa/pls/area3",
        "color": "blue"
      }
    ]
  },
  {
    "name": "North Hollywood, CA",
    "lat": 34.1870,
    "lng": -118.3813,
    "links": [
      {
        "type": "HI-TEK",
        "path": "data/NorthAmerica/usa/hitek/areaC",
        "color": "blue"
      },
      {
        "type": "YESG2M(PLS)",
        "path": "data/NorthAmerica/usa/pls/area3",
        "color": "blue"
      }
    ]
  },
  {
    "name": "Northwood, CA",
    "lat": 33.7092,
    "lng": -117.7609,
    "links": [
      {
        "type": "HI-TEK",
        "path": "data/NorthAmerica/usa/hitek/areaC",
        "color": "blue"
      },
      {
        "type": "YESG2M(PLS)",
        "path": "data/NorthAmerica/usa/pls/area3",
        "color": "blue"
      }
    ]
  },
  {
    "name": "Orange, CA",
    "lat": 33.7879,
    "lng": -117.8531,
    "links": [
      {
        "type": "HI-TEK",
        "path": "data/NorthAmerica/usa/hitek/areaC",
        "color": "blue"
      },
      {
        "type": "YESG2M(PLS)",
        "path": "data/NorthAmerica/usa/pls/area3",
        "color": "blue"
      }
    ]
  },
  {
    "name": "Pacific Palisades, CA",
    "lat": 34.0356,
    "lng": -118.5156,
    "links": [
      {
        "type": "HI-TEK",
        "path": "data/NorthAmerica/usa/hitek/areaC",
        "color": "blue"
      },
      {
        "type": "YESG2M(PLS)",
        "path": "data/NorthAmerica/usa/pls/area3",
        "color": "blue"
      }
    ]
  },
  {
    "name": "Panorama City, CA",
    "lat": 34.2240,
    "lng": -118.4420,
    "links": [
      {
        "type": "HI-TEK",
        "path": "data/NorthAmerica/usa/hitek/areaC",
        "color": "blue"
      },
      {
        "type": "YESG2M(PLS)",
        "path": "data/NorthAmerica/usa/pls/area3",
        "color": "blue"
      }
    ]
  },
  {
    "name": "Pico Rivera, CA",
    "lat": 33.9831,
    "lng": -118.0967,
    "links": [
      {
        "type": "HI-TEK",
        "path": "data/NorthAmerica/usa/hitek/areaC",
        "color": "blue"
      },
      {
        "type": "YESG2M(PLS)",
        "path": "data/NorthAmerica/usa/pls/area3",
        "color": "blue"
      }
    ]
  },
  {
    "name": "Playa del Rey, CA",
    "lat": 33.9603,
    "lng": -118.4426,
    "links": [
      {
        "type": "HI-TEK",
        "path": "data/NorthAmerica/usa/hitek/areaC",
        "color": "blue"
      },
      {
        "type": "YESG2M(PLS)",
        "path": "data/NorthAmerica/usa/pls/area3",
        "color": "blue"
      }
    ]
  },
  {
    "name": "Rosemead, CA",
    "lat": 34.0806,
    "lng": -118.0728,
    "links": [
      {
        "type": "HI-TEK",
        "path": "data/NorthAmerica/usa/hitek/areaC",
        "color": "blue"
      },
      {
        "type": "YESG2M(PLS)",
        "path": "data/NorthAmerica/usa/pls/area3",
        "color": "blue"
      }
    ]
  },
  {
    "name": "San Dernando, CA",
    "lat": 34.2820,
    "lng": -118.4380,
    "links": [
      {
        "type": "HI-TEK",
        "path": "data/NorthAmerica/usa/hitek/areaC",
        "color": "blue"
      },
      {
        "type": "YESG2M(PLS)",
        "path": "data/NorthAmerica/usa/pls/area3",
        "color": "blue"
      }
    ]
  },
  {
    "name": "San Gabriel, CA",
    "lat": 34.0961,
    "lng": -118.1058,
    "links": [
      {
        "type": "HI-TEK",
        "path": "data/NorthAmerica/usa/hitek/areaC",
        "color": "blue"
      },
      {
        "type": "YESG2M(PLS)",
        "path": "data/NorthAmerica/usa/pls/area3",
        "color": "blue"
      }
    ]
  },
  {
    "name": "Santa Ana, CA",
    "lat": 33.7455,
    "lng": -117.8677,
    "links": [
      {
        "type": "HI-TEK",
        "path": "data/NorthAmerica/usa/hitek/areaC",
        "color": "blue"
      },
      {
        "type": "YESG2M(PLS)",
        "path": "data/NorthAmerica/usa/pls/area3",
        "color": "blue"
      }
    ]
  },
  {
    "name": "Santa Monica, CA",
    "lat": 34.0195,
    "lng": -118.4912,
    "links": [
      {
        "type": "HI-TEK",
        "path": "data/NorthAmerica/usa/hitek/areaC",
        "color": "blue"
      },
      {
        "type": "YESG2M(PLS)",
        "path": "data/NorthAmerica/usa/pls/area3",
        "color": "blue"
      }
    ]
  },
  {
    "name": "Sepulveda, CA",
    "lat": 34.2496,
    "lng": -118.4674,
    "links": [
      {
        "type": "HI-TEK",
        "path": "data/NorthAmerica/usa/hitek/areaC",
        "color": "blue"
      },
      {
        "type": "YESG2M(PLS)",
        "path": "data/NorthAmerica/usa/pls/area3",
        "color": "blue"
      }
    ]
  },
  {
    "name": "South El Monte, CA",
    "lat": 34.0512,
    "lng": -118.0467,
    "links": [
      {
        "type": "HI-TEK",
        "path": "data/NorthAmerica/usa/hitek/areaC",
        "color": "blue"
      },
      {
        "type": "YESG2M(PLS)",
        "path": "data/NorthAmerica/usa/pls/area3",
        "color": "blue"
      }
    ]
  },
  {
    "name": "Venice, CA",
    "lat": 33.9850,
    "lng": -118.4695,
    "links": [
      {
        "type": "HI-TEK",
        "path": "data/NorthAmerica/usa/hitek/areaC",
        "color": "blue"
      },
      {
        "type": "YESG2M(PLS)",
        "path": "data/NorthAmerica/usa/pls/area3",
        "color": "blue"
      }
    ]
  },
  {
    "name": "Westminster, CA",
    "lat": 33.7513,
    "lng": -117.9931,
    "links": [
      {
        "type": "HI-TEK",
        "path": "data/NorthAmerica/usa/hitek/areaC",
        "color": "blue"
      },
      {
        "type": "YESG2M(PLS)",
        "path": "data/NorthAmerica/usa/pls/area3",
        "color": "blue"
      }
    ]
  },
  {
    "name": "Whittier, CA",
    "lat": 33.9792,
    "lng": -118.0328,
    "links": [
      {
        "type": "HI-TEK",
        "path": "data/NorthAmerica/usa/hitek/areaC",
        "color": "blue"
      },
      {
        "type": "YESG2M(PLS)",
        "path": "data/NorthAmerica/usa/pls/area3",
        "color": "blue"
      }
    ]
  },
  {
    "name": "Altadena, CA",
    "lat": 34.1890,
    "lng": -118.1312,
    "links": [
      {
        "type": "HI-TEK",
        "path": "data/NorthAmerica/usa/hitek/areaD",
        "color": "blue"
      },
      {
        "type": "YESG2M(PLS)",
        "path": "data/NorthAmerica/usa/pls/area4",
        "color": "blue"
      }
    ]
  },
  {
    "name": "Arcadia, CA",
    "lat": 34.1397,
    "lng": -118.0353,
    "links": [
      {
        "type": "HI-TEK",
        "path": "data/NorthAmerica/usa/hitek/areaD",
        "color": "blue"
      },
      {
        "type": "YESG2M(PLS)",
        "path": "data/NorthAmerica/usa/pls/area4",
        "color": "blue"
      }
    ]
  },
  {
    "name": "Aliso Viejo, CA",
    "lat": 33.5769,
    "lng": -117.7256,
    "links": [
      {
        "type": "HI-TEK",
        "path": "data/NorthAmerica/usa/hitek/areaD",
        "color": "blue"
      },
      {
        "type": "YESG2M(PLS)",
        "path": "data/NorthAmerica/usa/pls/area4",
        "color": "blue"
      }
    ]
  },
  {
    "name": "Anaheim Hills, CA",
    "lat": 33.8501,
    "lng": -117.7601,
    "links": [
      {
        "type": "HI-TEK",
        "path": "data/NorthAmerica/usa/hitek/areaD",
        "color": "blue"
      },
      {
        "type": "YESG2M(PLS)",
        "path": "data/NorthAmerica/usa/pls/area4",
        "color": "blue"
      }
    ]
  },
  {
    "name": "Brea, CA",
    "lat": 33.9167,
    "lng": -117.9001,
    "links": [
      {
        "type": "HI-TEK",
        "path": "data/NorthAmerica/usa/hitek/areaD",
        "color": "blue"
      },
      {
        "type": "YESG2M(PLS)",
        "path": "data/NorthAmerica/usa/pls/area4",
        "color": "blue"
      }
    ]
  },
  {
    "name": "Burbank, CA",
    "lat": 34.1808,
    "lng": -118.3089,
    "links": [
      {
        "type": "HI-TEK",
        "path": "data/NorthAmerica/usa/hitek/areaD",
        "color": "blue"
      },
      {
        "type": "YESG2M(PLS)",
        "path": "data/NorthAmerica/usa/pls/area4",
        "color": "blue"
      }
    ]
  },
  {
    "name": "Calabasas, CA",
    "lat": 34.1367,
    "lng": -118.6615,
    "links": [
      {
        "type": "HI-TEK",
        "path": "data/NorthAmerica/usa/hitek/areaD",
        "color": "blue"
      },
      {
        "type": "YESG2M(PLS)",
        "path": "data/NorthAmerica/usa/pls/area4",
        "color": "blue"
      }
    ]
  },
  {
    "name": "Canoga Park, CA",
    "lat": 34.2011,
    "lng": -118.5981,
    "links": [
      {
        "type": "HI-TEK",
        "path": "data/NorthAmerica/usa/hitek/areaD",
        "color": "blue"
      },
      {
        "type": "YESG2M(PLS)",
        "path": "data/NorthAmerica/usa/pls/area4",
        "color": "blue"
      }
    ]
  },
  {
    "name": "Chatsworth, CA",
    "lat": 34.2506,
    "lng": -118.6148,
    "links": [
      {
        "type": "HI-TEK",
        "path": "data/NorthAmerica/usa/hitek/areaD",
        "color": "blue"
      },
      {
        "type": "YESG2M(PLS)",
        "path": "data/NorthAmerica/usa/pls/area4",
        "color": "blue"
      }
    ]
  },
  {
    "name": "Claremont, CA",
    "lat": 34.0967,
    "lng": -117.7198,
    "links": [
      {
        "type": "HI-TEK",
        "path": "data/NorthAmerica/usa/hitek/areaD",
        "color": "blue"
      },
      {
        "type": "YESG2M(PLS)",
        "path": "data/NorthAmerica/usa/pls/area4",
        "color": "blue"
      }
    ]
  },
  {
    "name": "Covina, CA",
    "lat": 34.0900,
    "lng": -117.8903,
    "links": [
      {
        "type": "HI-TEK",
        "path": "data/NorthAmerica/usa/hitek/areaD",
        "color": "blue"
      },
      {
        "type": "YESG2M(PLS)",
        "path": "data/NorthAmerica/usa/pls/area4",
        "color": "blue"
      }
    ]
  },
  {
    "name": "Chino Hills, CA",
    "lat": 33.9890,
    "lng": -117.7326,
    "links": [
      {
        "type": "HI-TEK",
        "path": "data/NorthAmerica/usa/hitek/areaD",
        "color": "blue"
      },
      {
        "type": "YESG2M(PLS)",
        "path": "data/NorthAmerica/usa/pls/area4",
        "color": "blue"
      }
    ]
  },
  {
    "name": "Diamond Bar, CA",
    "lat": 34.0286,
    "lng": -117.8103,
    "links": [
      {
        "type": "HI-TEK",
        "path": "data/NorthAmerica/usa/hitek/areaD",
        "color": "blue"
      },
      {
        "type": "YESG2M(PLS)",
        "path": "data/NorthAmerica/usa/pls/area4",
        "color": "blue"
      }
    ]
  },
  {
    "name": "Eagle Rock, CA",
    "lat": 34.1392,
    "lng": -118.2140,
    "links": [
      {
        "type": "HI-TEK",
        "path": "data/NorthAmerica/usa/hitek/areaD",
        "color": "blue"
      },
      {
        "type": "YESG2M(PLS)",
        "path": "data/NorthAmerica/usa/pls/area4",
        "color": "blue"
      }
    ]
  },
  {
    "name": "El Monte, CA",
    "lat": 34.0686,
    "lng": -118.0276,
    "links": [
      {
        "type": "HI-TEK",
        "path": "data/NorthAmerica/usa/hitek/areaD",
        "color": "blue"
      },
      {
        "type": "YESG2M(PLS)",
        "path": "data/NorthAmerica/usa/pls/area4",
        "color": "blue"
      }
    ]
  },
  {
    "name": "El Toro, CA",
    "lat": 33.6760,
    "lng": -117.6679,
    "links": [
      {
        "type": "HI-TEK",
        "path": "data/NorthAmerica/usa/hitek/areaD",
        "color": "blue"
      },
      {
        "type": "YESG2M(PLS)",
        "path": "data/NorthAmerica/usa/pls/area4",
        "color": "blue"
      }
    ]
  },
  {
    "name": "Fairmont, CA",
    "lat": 34.7440,
    "lng": -118.5531,
    "links": [
      {
        "type": "HI-TEK",
        "path": "data/NorthAmerica/usa/hitek/areaD",
        "color": "blue"
      },
      {
        "type": "YESG2M(PLS)",
        "path": "data/NorthAmerica/usa/pls/area4",
        "color": "blue"
      }
    ]
  },
  {
    "name": "Glendale, CA",
    "lat": 34.1425,
    "lng": -118.2551,
    "links": [
      {
        "type": "HI-TEK",
        "path": "data/NorthAmerica/usa/hitek/areaD",
        "color": "blue"
      },
      {
        "type": "YESG2M(PLS)",
        "path": "data/NorthAmerica/usa/pls/area4",
        "color": "blue"
      }
    ]
  },
  {
    "name": "Glendora, CA",
    "lat": 34.1361,
    "lng": -117.8653,
    "links": [
      {
        "type": "HI-TEK",
        "path": "data/NorthAmerica/usa/hitek/areaD",
        "color": "blue"
      },
      {
        "type": "YESG2M(PLS)",
        "path": "data/NorthAmerica/usa/pls/area4",
        "color": "blue"
      }
    ]
  },
  {
    "name": "Granada Hills, CA",
    "lat": 34.2794,
    "lng": -118.5004,
    "links": [
      {
        "type": "HI-TEK",
        "path": "data/NorthAmerica/usa/hitek/areaD",
        "color": "blue"
      },
      {
        "type": "YESG2M(PLS)",
        "path": "data/NorthAmerica/usa/pls/area4",
        "color": "blue"
      }
    ]
  },
  {
    "name": "Hacienda Heights, CA",
    "lat": 33.9937,
    "lng": -117.9680,
    "links": [
      {
        "type": "HI-TEK",
        "path": "data/NorthAmerica/usa/hitek/areaD",
        "color": "blue"
      },
      {
        "type": "YESG2M(PLS)",
        "path": "data/NorthAmerica/usa/pls/area4",
        "color": "blue"
      }
    ]
  },
  {
    "name": "Irvine, CA",
    "lat": 33.6846,
    "lng": -117.8265,
    "links": [
      {
        "type": "HI-TEK",
        "path": "data/NorthAmerica/usa/hitek/areaD",
        "color": "blue"
      },
      {
        "type": "YESG2M(PLS)",
        "path": "data/NorthAmerica/usa/pls/area4",
        "color": "blue"
      }
    ]
  },
  {
    "name": "La Canada, CA",
    "lat": 34.2068,
    "lng": -118.2000,
    "links": [
      {
        "type": "HI-TEK",
        "path": "data/NorthAmerica/usa/hitek/areaD",
        "color": "blue"
      },
      {
        "type": "YESG2M(PLS)",
        "path": "data/NorthAmerica/usa/pls/area4",
        "color": "blue"
      }
    ]
  },
  {
    "name": "La Crescenta, CA",
    "lat": 34.2328,
    "lng": -118.2479,
    "links": [
      {
        "type": "HI-TEK",
        "path": "data/NorthAmerica/usa/hitek/areaD",
        "color": "blue"
      },
      {
        "type": "YESG2M(PLS)",
        "path": "data/NorthAmerica/usa/pls/area4",
        "color": "blue"
      }
    ]
  },
  {
    "name": "La Verne, CA",
    "lat": 34.1008,
    "lng": -117.7678,
    "links": [
      {
        "type": "HI-TEK",
        "path": "data/NorthAmerica/usa/hitek/areaD",
        "color": "blue"
      },
      {
        "type": "YESG2M(PLS)",
        "path": "data/NorthAmerica/usa/pls/area4",
        "color": "blue"
      }
    ]
  },
  {
    "name": "Laguna Beach, CA",
    "lat": 33.5427,
    "lng": -117.7854,
    "links": [
      {
        "type": "HI-TEK",
        "path": "data/NorthAmerica/usa/hitek/areaD",
        "color": "blue"
      },
      {
        "type": "YESG2M(PLS)",
        "path": "data/NorthAmerica/usa/pls/area4",
        "color": "blue"
      }
    ]
  },
  {
    "name": "Laguna Hills, CA",
    "lat": 33.6125,
    "lng": -117.7128,
    "links": [
      {
        "type": "HI-TEK",
        "path": "data/NorthAmerica/usa/hitek/areaD",
        "color": "blue"
      },
      {
        "type": "YESG2M(PLS)",
        "path": "data/NorthAmerica/usa/pls/area4",
        "color": "blue"
      }
    ]
  },
  {
    "name": "Laguna Niguel, CA",
    "lat": 33.5225,
    "lng": -117.7076,
    "links": [
      {
        "type": "HI-TEK",
        "path": "data/NorthAmerica/usa/hitek/areaD",
        "color": "blue"
      },
      {
        "type": "YESG2M(PLS)",
        "path": "data/NorthAmerica/usa/pls/area4",
        "color": "blue"
      }
    ]
  },
  {
    "name": "Laguna Woods, CA",
    "lat": 33.6103,
    "lng": -117.7291,
    "links": [
      {
        "type": "HI-TEK",
        "path": "data/NorthAmerica/usa/hitek/areaD",
        "color": "blue"
      },
      {
        "type": "YESG2M(PLS)",
        "path": "data/NorthAmerica/usa/pls/area4",
        "color": "blue"
      }
    ]
  },
  {
    "name": "Lake Forest, CA",
    "lat": 33.6469,
    "lng": -117.6861,
    "links": [
      {
        "type": "HI-TEK",
        "path": "data/NorthAmerica/usa/hitek/areaD",
        "color": "blue"
      },
      {
        "type": "YESG2M(PLS)",
        "path": "data/NorthAmerica/usa/pls/area4",
        "color": "blue"
      }
    ]
  },
  {
    "name": "Malibu, CA",
    "lat": 34.0259,
    "lng": -118.7798,
    "links": [
      {
        "type": "HI-TEK",
        "path": "data/NorthAmerica/usa/hitek/areaD",
        "color": "blue"
      },
      {
        "type": "YESG2M(PLS)",
        "path": "data/NorthAmerica/usa/pls/area4",
        "color": "blue"
      }
    ]
  },
  {
    "name": "Mission Hill, CA",
    "lat": 34.2178,
    "lng": -118.4696,
    "links": [
      {
        "type": "HI-TEK",
        "path": "data/NorthAmerica/usa/hitek/areaD",
        "color": "blue"
      },
      {
        "type": "YESG2M(PLS)",
        "path": "data/NorthAmerica/usa/pls/area4",
        "color": "blue"
      }
    ]
  },
  {
    "name": "Monrovia, CA",
    "lat": 34.1481,
    "lng": -117.9989,
    "links": [
      {
        "type": "HI-TEK",
        "path": "data/NorthAmerica/usa/hitek/areaD",
        "color": "blue"
      },
      {
        "type": "YESG2M(PLS)",
        "path": "data/NorthAmerica/usa/pls/area4",
        "color": "blue"
      }
    ]
  },
  {
    "name": "Montrose, CA",
    "lat": 34.2061,
    "lng": -118.2256,
    "links": [
      {
        "type": "HI-TEK",
        "path": "data/NorthAmerica/usa/hitek/areaD",
        "color": "blue"
      },
      {
        "type": "YESG2M(PLS)",
        "path": "data/NorthAmerica/usa/pls/area4",
        "color": "blue"
      }
    ]
  },
  {
    "name": "Mission Viejo, CA",
    "lat": 33.6000,
    "lng": -117.6710,
    "links": [
      {
        "type": "HI-TEK",
        "path": "data/NorthAmerica/usa/hitek/areaD",
        "color": "blue"
      },
      {
        "type": "YESG2M(PLS)",
        "path": "data/NorthAmerica/usa/pls/area4",
        "color": "blue"
      }
    ]
  },
  {
    "name": "Montclair, CA",
    "lat": 34.0775,
    "lng": -117.6898,
    "links": [
      {
        "type": "HI-TEK",
        "path": "data/NorthAmerica/usa/hitek/areaD",
        "color": "blue"
      },
      {
        "type": "YESG2M(PLS)",
        "path": "data/NorthAmerica/usa/pls/area4",
        "color": "blue"
      }
    ]
  },
  {
    "name": "Northridge, CA",
    "lat": 34.2381,
    "lng": -118.5301,
    "links": [
      {
        "type": "HI-TEK",
        "path": "data/NorthAmerica/usa/hitek/areaD",
        "color": "blue"
      },
      {
        "type": "YESG2M(PLS)",
        "path": "data/NorthAmerica/usa/pls/area4",
        "color": "blue"
      }
    ]
  },
  {
    "name": "Newport Beach, CA",
    "lat": 33.6189,
    "lng": -117.9298,
    "links": [
      {
        "type": "HI-TEK",
        "path": "data/NorthAmerica/usa/hitek/areaD",
        "color": "blue"
      },
      {
        "type": "YESG2M(PLS)",
        "path": "data/NorthAmerica/usa/pls/area4",
        "color": "blue"
      }
    ]
  },
  {
    "name": "Newport Coast, CA",
    "lat": 33.5725,
    "lng": -117.8292,
    "links": [
      {
        "type": "HI-TEK",
        "path": "data/NorthAmerica/usa/hitek/areaD",
        "color": "blue"
      },
      {
        "type": "YESG2M(PLS)",
        "path": "data/NorthAmerica/usa/pls/area4",
        "color": "blue"
      }
    ]
  },
  {
    "name": "Norco, CA",
    "lat": 33.9311,
    "lng": -117.5487,
    "links": [
      {
        "type": "HI-TEK",
        "path": "data/NorthAmerica/usa/hitek/areaD",
        "color": "blue"
      },
      {
        "type": "YESG2M(PLS)",
        "path": "data/NorthAmerica/usa/pls/area4",
        "color": "blue"
      }
    ]
  },
  {
    "name": "Ontario, CA",
    "lat": 34.0633,
    "lng": -117.6509,
    "links": [
      {
        "type": "HI-TEK",
        "path": "data/NorthAmerica/usa/hitek/areaD",
        "color": "blue"
      },
      {
        "type": "YESG2M(PLS)",
        "path": "data/NorthAmerica/usa/pls/area4",
        "color": "blue"
      }
    ]
  },
  {
    "name": "Pacoima, CA",
    "lat": 34.2640,
    "lng": -118.4195,
    "links": [
      {
        "type": "HI-TEK",
        "path": "data/NorthAmerica/usa/hitek/areaD",
        "color": "blue"
      },
      {
        "type": "YESG2M(PLS)",
        "path": "data/NorthAmerica/usa/pls/area4",
        "color": "blue"
      }
    ]
  },
  {
    "name": "Pasadena, CA",
    "lat": 34.1478,
    "lng": -118.1445,
    "links": [
      {
        "type": "HI-TEK",
        "path": "data/NorthAmerica/usa/hitek/areaD",
        "color": "blue"
      },
      {
        "type": "YESG2M(PLS)",
        "path": "data/NorthAmerica/usa/pls/area4",
        "color": "blue"
      }
    ]
  },
  {
    "name": "Pomona, CA",
    "lat": 34.0551,
    "lng": -117.7490,
    "links": [
      {
        "type": "HI-TEK",
        "path": "data/NorthAmerica/usa/hitek/areaD",
        "color": "blue"
      },
      {
        "type": "YESG2M(PLS)",
        "path": "data/NorthAmerica/usa/pls/area4",
        "color": "blue"
      }
    ]
  },
  {
    "name": "Porter Ranch, CA",
    "lat": 34.2822,
    "lng": -118.5576,
    "links": [
      {
        "type": "HI-TEK",
        "path": "data/NorthAmerica/usa/hitek/areaD",
        "color": "blue"
      },
      {
        "type": "YESG2M(PLS)",
        "path": "data/NorthAmerica/usa/pls/area4",
        "color": "blue"
      }
    ]
  },
  {
    "name": "Placentia, CA",
    "lat": 33.8720,
    "lng": -117.8703,
    "links": [
      {
        "type": "HI-TEK",
        "path": "data/NorthAmerica/usa/hitek/areaD",
        "color": "blue"
      },
      {
        "type": "YESG2M(PLS)",
        "path": "data/NorthAmerica/usa/pls/area4",
        "color": "blue"
      }
    ]
  },
  {
    "name": "Reseda, CA",
    "lat": 34.2011,
    "lng": -118.5368,
    "links": [
      {
        "type": "HI-TEK",
        "path": "data/NorthAmerica/usa/hitek/areaD",
        "color": "blue"
      },
      {
        "type": "YESG2M(PLS)",
        "path": "data/NorthAmerica/usa/pls/area4",
        "color": "blue"
      }
    ]
  },
  {
    "name": "Rowland Heights, CA",
    "lat": 33.9761,
    "lng": -117.9053,
    "links": [
      {
        "type": "HI-TEK",
        "path": "data/NorthAmerica/usa/hitek/areaD",
        "color": "blue"
      },
      {
        "type": "YESG2M(PLS)",
        "path": "data/NorthAmerica/usa/pls/area4",
        "color": "blue"
      }
    ]
  },
  {
    "name": "Riverside, CA",
    "lat": 33.9806,
    "lng": -117.3755,
    "links": [
      {
        "type": "HI-TEK",
        "path": "data/NorthAmerica/usa/hitek/areaD",
        "color": "blue"
      },
      {
        "type": "YESG2M(PLS)",
        "path": "data/NorthAmerica/usa/pls/area4",
        "color": "blue"
      }
    ]
  },
  {
    "name": "San Dimas, CA",
    "lat": 34.1067,
    "lng": -117.8067,
    "links": [
      {
        "type": "HI-TEK",
        "path": "data/NorthAmerica/usa/hitek/areaD",
        "color": "blue"
      },
      {
        "type": "YESG2M(PLS)",
        "path": "data/NorthAmerica/usa/pls/area4",
        "color": "blue"
      }
    ]
  },
  {
    "name": "San Marino, CA",
    "lat": 34.1214,
    "lng": -118.1065,
    "links": [
      {
        "type": "HI-TEK",
        "path": "data/NorthAmerica/usa/hitek/areaD",
        "color": "blue"
      },
      {
        "type": "YESG2M(PLS)",
        "path": "data/NorthAmerica/usa/pls/area4",
        "color": "blue"
      }
    ]
  },
  {
    "name": "Sherman Oaks, CA",
    "lat": 34.1481,
    "lng": -118.4514,
    "links": [
      {
        "type": "HI-TEK",
        "path": "data/NorthAmerica/usa/hitek/areaD",
        "color": "blue"
      },
      {
        "type": "YESG2M(PLS)",
        "path": "data/NorthAmerica/usa/pls/area4",
        "color": "blue"
      }
    ]
  },
  {
    "name": "Studio City, CA",
    "lat": 34.1396,
    "lng": -118.3871,
    "links": [
      {
        "type": "HI-TEK",
        "path": "data/NorthAmerica/usa/hitek/areaD",
        "color": "blue"
      },
      {
        "type": "YESG2M(PLS)",
        "path": "data/NorthAmerica/usa/pls/area4",
        "color": "blue"
      }
    ]
  },
  {
    "name": "Sunland, CA",
    "lat": 34.2614,
    "lng": -118.3085,
    "links": [
      {
        "type": "HI-TEK",
        "path": "data/NorthAmerica/usa/hitek/areaD",
        "color": "blue"
      },
      {
        "type": "YESG2M(PLS)",
        "path": "data/NorthAmerica/usa/pls/area4",
        "color": "blue"
      }
    ]
  },
  {
    "name": "Sun Valley, CA",
    "lat": 34.2276,
    "lng": -118.3812,
    "links": [
      {
        "type": "HI-TEK",
        "path": "data/NorthAmerica/usa/hitek/areaD",
        "color": "blue"
      },
      {
        "type": "YESG2M(PLS)",
        "path": "data/NorthAmerica/usa/pls/area4",
        "color": "blue"
      }
    ]
  },
  {
    "name": "Tarzana, CA",
    "lat": 34.1495,
    "lng": -118.5535,
    "links": [
      {
        "type": "HI-TEK",
        "path": "data/NorthAmerica/usa/hitek/areaD",
        "color": "blue"
      },
      {
        "type": "YESG2M(PLS)",
        "path": "data/NorthAmerica/usa/pls/area4",
        "color": "blue"
      }
    ]
  },
  {
    "name": "Topanga Canyon, CA",
    "lat": 34.0911,
    "lng": -118.6021,
    "links": [
      {
        "type": "HI-TEK",
        "path": "data/NorthAmerica/usa/hitek/areaD",
        "color": "blue"
      },
      {
        "type": "YESG2M(PLS)",
        "path": "data/NorthAmerica/usa/pls/area4",
        "color": "blue"
      }
    ]
  },
  {
    "name": "Tujunga, CA",
    "lat": 34.2545,
    "lng": -118.2915,
    "links": [
      {
        "type": "HI-TEK",
        "path": "data/NorthAmerica/usa/hitek/areaD",
        "color": "blue"
      },
      {
        "type": "YESG2M(PLS)",
        "path": "data/NorthAmerica/usa/pls/area4",
        "color": "blue"
      }
    ]
  },
  {
    "name": "Tustin, CA",
    "lat": 33.7458,
    "lng": -117.8262,
    "links": [
      {
        "type": "HI-TEK",
        "path": "data/NorthAmerica/usa/hitek/areaD",
        "color": "blue"
      },
      {
        "type": "YESG2M(PLS)",
        "path": "data/NorthAmerica/usa/pls/area4",
        "color": "blue"
      }
    ]
  },
  {
    "name": "Upland, CA",
    "lat": 34.0975,
    "lng": -117.6484,
    "links": [
      {
        "type": "HI-TEK",
        "path": "data/NorthAmerica/usa/hitek/areaD",
        "color": "blue"
      },
      {
        "type": "YESG2M(PLS)",
        "path": "data/NorthAmerica/usa/pls/area4",
        "color": "blue"
      }
    ]
  },
  {
    "name": "Van Nuys, CA",
    "lat": 34.1899,
    "lng": -118.4514,
    "links": [
      {
        "type": "HI-TEK",
        "path": "data/NorthAmerica/usa/hitek/areaD",
        "color": "blue"
      },
      {
        "type": "YESG2M(PLS)",
        "path": "data/NorthAmerica/usa/pls/area4",
        "color": "blue"
      }
    ]
  },
  {
    "name": "West Hills, CA",
    "lat": 34.1975,
    "lng": -118.6432,
    "links": [
      {
        "type": "HI-TEK",
        "path": "data/NorthAmerica/usa/hitek/areaD",
        "color": "blue"
      },
      {
        "type": "YESG2M(PLS)",
        "path": "data/NorthAmerica/usa/pls/area4",
        "color": "blue"
      }
    ]
  },
  {
    "name": "Walnut, CA",
    "lat": 34.0203,
    "lng": -117.8653,
    "links": [
      {
        "type": "HI-TEK",
        "path": "data/NorthAmerica/usa/hitek/areaD",
        "color": "blue"
      },
      {
        "type": "YESG2M(PLS)",
        "path": "data/NorthAmerica/usa/pls/area4",
        "color": "blue"
      }
    ]
  },
  {
    "name": "West Covina, CA",
    "lat": 34.0686,
    "lng": -117.9389,
    "links": [
      {
        "type": "HI-TEK",
        "path": "data/NorthAmerica/usa/hitek/areaD",
        "color": "blue"
      },
      {
        "type": "YESG2M(PLS)",
        "path": "data/NorthAmerica/usa/pls/area4",
        "color": "blue"
      }
    ]
  },
  {
    "name": "Wood Hills, CA",
    "lat": 34.1847,
    "lng": -118.5731,
    "links": [
      {
        "type": "HI-TEK",
        "path": "data/NorthAmerica/usa/hitek/areaD",
        "color": "blue"
      },
      {
        "type": "YESG2M(PLS)",
        "path": "data/NorthAmerica/usa/pls/area4",
        "color": "blue"
      }
    ]
  },
  {
    "name": "Woodland Hills, CA",
    "lat": 34.1683,
    "lng": -118.6059,
    "links": [
      {
        "type": "HI-TEK",
        "path": "data/NorthAmerica/usa/hitek/areaD",
        "color": "blue"
      },
      {
        "type": "YESG2M(PLS)",
        "path": "data/NorthAmerica/usa/pls/area4",
        "color": "blue"
      }
    ]
  },
  {
    "name": "Yorba Linda, CA",
    "lat": 33.8886,
    "lng": -117.8136,
    "links": [
      {
        "type": "HI-TEK",
        "path": "data/NorthAmerica/usa/hitek/areaD",
        "color": "blue"
      },
      {
        "type": "YESG2M(PLS)",
        "path": "data/NorthAmerica/usa/pls/area4",
        "color": "blue"
      }
    ]
  },
  {
    "name": "Agoura Hills, CA",
    "lat": 34.1533,
    "lng": -118.7617,
    "links": [
      {
        "type": "HI-TEK",
        "path": "data/NorthAmerica/usa/hitek/areaE",
        "color": "blue"
      },
      {
        "type": "YESG2M(PLS)",
        "path": "data/NorthAmerica/usa/pls/area5",
        "color": "blue"
      }
    ]
  },
  {
    "name": "Arrowhead Springs, CA",
    "lat": 34.1797,
    "lng": -117.2661,
    "links": [
      {
        "type": "HI-TEK",
        "path": "data/NorthAmerica/usa/hitek/areaE",
        "color": "blue"
      },
      {
        "type": "YESG2M(PLS)",
        "path": "data/NorthAmerica/usa/pls/area5",
        "color": "blue"
      }
    ]
  },
  {
    "name": "Alta Loma, CA",
    "lat": 34.1417,
    "lng": -117.5814,
    "links": [
      {
        "type": "HI-TEK",
        "path": "data/NorthAmerica/usa/hitek/areaE",
        "color": "blue"
      },
      {
        "type": "YESG2M(PLS)",
        "path": "data/NorthAmerica/usa/pls/area5",
        "color": "blue"
      }
    ]
  },
  {
    "name": "Corona, CA",
    "lat": 33.8753,
    "lng": -117.5664,
    "links": [
      {
        "type": "HI-TEK",
        "path": "data/NorthAmerica/usa/hitek/areaE",
        "color": "blue"
      },
      {
        "type": "YESG2M(PLS)",
        "path": "data/NorthAmerica/usa/pls/area5",
        "color": "blue"
      }
    ]
  },
  {
    "name": "Dana Point, CA",
    "lat": 33.4672,
    "lng": -117.6981,
    "links": [
      {
        "type": "HI-TEK",
        "path": "data/NorthAmerica/usa/hitek/areaE",
        "color": "blue"
      },
      {
        "type": "YESG2M(PLS)",
        "path": "data/NorthAmerica/usa/pls/area5",
        "color": "blue"
      }
    ]
  },
  {
    "name": "Fontana, CA",
    "lat": 34.0922,
    "lng": -117.4350,
    "links": [
      {
        "type": "HI-TEK",
        "path": "data/NorthAmerica/usa/hitek/areaE",
        "color": "blue"
      },
      {
        "type": "YESG2M(PLS)",
        "path": "data/NorthAmerica/usa/pls/area5",
        "color": "blue"
      }
    ]
  },
  {
    "name": "Hemet, CA",
    "lat": 33.7475,
    "lng": -116.9710,
    "links": [
      {
        "type": "HI-TEK",
        "path": "data/NorthAmerica/usa/hitek/areaE",
        "color": "blue"
      },
      {
        "type": "YESG2M(PLS)",
        "path": "data/NorthAmerica/usa/pls/area5",
        "color": "blue"
      }
    ]
  },
  {
    "name": "Lancaster, CA",
    "lat": 34.6868,
    "lng": -118.1542,
    "links": [
      {
        "type": "HI-TEK",
        "path": "data/NorthAmerica/usa/hitek/areaE",
        "color": "blue"
      },
      {
        "type": "YESG2M(PLS)",
        "path": "data/NorthAmerica/usa/pls/area5",
        "color": "blue"
      }
    ]
  },
  {
    "name": "Ladera Ranch, CA",
    "lat": 33.5703,
    "lng": -117.6351,
    "links": [
      {
        "type": "HI-TEK",
        "path": "data/NorthAmerica/usa/hitek/areaE",
        "color": "blue"
      },
      {
        "type": "YESG2M(PLS)",
        "path": "data/NorthAmerica/usa/pls/area5",
        "color": "blue"
      }
    ]
  },
  {
    "name": "Loma Linda, CA",
    "lat": 34.0486,
    "lng": -117.2610,
    "links": [
      {
        "type": "HI-TEK",
        "path": "data/NorthAmerica/usa/hitek/areaE",
        "color": "blue"
      },
      {
        "type": "YESG2M(PLS)",
        "path": "data/NorthAmerica/usa/pls/area5",
        "color": "blue"
      }
    ]
  },
  {
    "name": "Moorpark, CA",
    "lat": 34.2856,
    "lng": -118.8820,
    "links": [
      {
        "type": "HI-TEK",
        "path": "data/NorthAmerica/usa/hitek/areaE",
        "color": "blue"
      },
      {
        "type": "YESG2M(PLS)",
        "path": "data/NorthAmerica/usa/pls/area5",
        "color": "blue"
      }
    ]
  },
  {
    "name": "Moreno Valley, CA",
    "lat": 33.9425,
    "lng": -117.2297,
    "links": [
      {
        "type": "HI-TEK",
        "path": "data/NorthAmerica/usa/hitek/areaE",
        "color": "blue"
      },
      {
        "type": "YESG2M(PLS)",
        "path": "data/NorthAmerica/usa/pls/area5",
        "color": "blue"
      }
    ]
  },
  {
    "name": "Murrieta, CA",
    "lat": 33.5539,
    "lng": -117.2139,
    "links": [
      {
        "type": "HI-TEK",
        "path": "data/NorthAmerica/usa/hitek/areaE",
        "color": "blue"
      },
      {
        "type": "YESG2M(PLS)",
        "path": "data/NorthAmerica/usa/pls/area5",
        "color": "blue"
      }
    ]
  },
  {
    "name": "Oak View, CA",
    "lat": 34.3975,
    "lng": -119.3001,
    "links": [
      {
        "type": "HI-TEK",
        "path": "data/NorthAmerica/usa/hitek/areaE",
        "color": "blue"
      },
      {
        "type": "YESG2M(PLS)",
        "path": "data/NorthAmerica/usa/pls/area5",
        "color": "blue"
      }
    ]
  },
  {
    "name": "Oxnard, CA",
    "lat": 34.1975,
    "lng": -119.1771,
    "links": [
      {
        "type": "HI-TEK",
        "path": "data/NorthAmerica/usa/hitek/areaE",
        "color": "blue"
      },
      {
        "type": "YESG2M(PLS)",
        "path": "data/NorthAmerica/usa/pls/area5",
        "color": "blue"
      }
    ]
  },
  {
    "name": "Palmdale, CA",
    "lat": 34.5794,
    "lng": -118.1165,
    "links": [
      {
        "type": "HI-TEK",
        "path": "data/NorthAmerica/usa/hitek/areaE",
        "color": "blue"
      },
      {
        "type": "YESG2M(PLS)",
        "path": "data/NorthAmerica/usa/pls/area5",
        "color": "blue"
      }
    ]
  },
  {
    "name": "Rancho Cucamonga, CA",
    "lat": 34.1064,
    "lng": -117.5931,
    "links": [
      {
        "type": "HI-TEK",
        "path": "data/NorthAmerica/usa/hitek/areaE",
        "color": "blue"
      },
      {
        "type": "YESG2M(PLS)",
        "path": "data/NorthAmerica/usa/pls/area5",
        "color": "blue"
      }
    ]
  },
  {
    "name": "Redlands, CA",
    "lat": 34.0556,
    "lng": -117.1825,
    "links": [
      {
        "type": "HI-TEK",
        "path": "data/NorthAmerica/usa/hitek/areaE",
        "color": "blue"
      },
      {
        "type": "YESG2M(PLS)",
        "path": "data/NorthAmerica/usa/pls/area5",
        "color": "blue"
      }
    ]
  },
  {
    "name": "Santa Clarita, CA",
    "lat": 34.3917,
    "lng": -118.5426,
    "links": [
      {
        "type": "HI-TEK",
        "path": "data/NorthAmerica/usa/hitek/areaE",
        "color": "blue"
      },
      {
        "type": "YESG2M(PLS)",
        "path": "data/NorthAmerica/usa/pls/area5",
        "color": "blue"
      }
    ]
  },
  {
    "name": "Saugus, CA",
    "lat": 34.4265,
    "lng": -118.5365,
    "links": [
      {
        "type": "HI-TEK",
        "path": "data/NorthAmerica/usa/hitek/areaE",
        "color": "blue"
      },
      {
        "type": "YESG2M(PLS)",
        "path": "data/NorthAmerica/usa/pls/area5",
        "color": "blue"
      }
    ]
  },
  {
    "name": "Simi Valley, CA",
    "lat": 34.2694,
    "lng": -118.7815,
    "links": [
      {
        "type": "HI-TEK",
        "path": "data/NorthAmerica/usa/hitek/areaE",
        "color": "blue"
      },
      {
        "type": "YESG2M(PLS)",
        "path": "data/NorthAmerica/usa/pls/area5",
        "color": "blue"
      }
    ]
  },
  {
    "name": "Stevenson Ranch, CA",
    "lat": 34.3931,
    "lng": -118.5804,
    "links": [
      {
        "type": "HI-TEK",
        "path": "data/NorthAmerica/usa/hitek/areaE",
        "color": "blue"
      },
      {
        "type": "YESG2M(PLS)",
        "path": "data/NorthAmerica/usa/pls/area5",
        "color": "blue"
      }
    ]
  },
  {
    "name": "Sylmar, CA",
    "lat": 34.3058,
    "lng": -118.4572,
    "links": [
      {
        "type": "HI-TEK",
        "path": "data/NorthAmerica/usa/hitek/areaE",
        "color": "blue"
      },
      {
        "type": "YESG2M(PLS)",
        "path": "data/NorthAmerica/usa/pls/area5",
        "color": "blue"
      }
    ]
  },
  {
    "name": "Thousand Oaks, CA",
    "lat": 34.1706,
    "lng": -118.8376,
    "links": [
      {
        "type": "HI-TEK",
        "path": "data/NorthAmerica/usa/hitek/areaE",
        "color": "blue"
      },
      {
        "type": "YESG2M(PLS)",
        "path": "data/NorthAmerica/usa/pls/area5",
        "color": "blue"
      }
    ]
  },
  {
    "name": "Temecula, CA",
    "lat": 33.4936,
    "lng": -117.1484,
    "links": [
      {
        "type": "HI-TEK",
        "path": "data/NorthAmerica/usa/hitek/areaE",
        "color": "blue"
      },
      {
        "type": "YESG2M(PLS)",
        "path": "data/NorthAmerica/usa/pls/area5",
        "color": "blue"
      }
    ]
  },
  {
    "name": "Valencia, CA",
    "lat": 34.4433,
    "lng": -118.5766,
    "links": [
      {
        "type": "HI-TEK",
        "path": "data/NorthAmerica/usa/hitek/areaE",
        "color": "blue"
      },
      {
        "type": "YESG2M(PLS)",
        "path": "data/NorthAmerica/usa/pls/area5",
        "color": "blue"
      }
    ]
  },
  {
    "name": "Ventura, CA",
    "lat": 34.2746,
    "lng": -119.2290,
    "links": [
      {
        "type": "HI-TEK",
        "path": "data/NorthAmerica/usa/hitek/areaE",
        "color": "blue"
      },
      {
        "type": "YESG2M(PLS)",
        "path": "data/NorthAmerica/usa/pls/area5",
        "color": "blue"
      }
    ]
  },
  {
    "name": "Westlake Village, CA",
    "lat": 34.1458,
    "lng": -118.8059,
    "links": [
      {
        "type": "HI-TEK",
        "path": "data/NorthAmerica/usa/hitek/areaE",
        "color": "blue"
      },
      {
        "type": "YESG2M(PLS)",
        "path": "data/NorthAmerica/usa/pls/area5",
        "color": "blue"
      }
    ]
  },
  {
    "name": "Monterey Park, CA",
    "lat": 34.0625,
    "lng": -118.1228,
    "links": [
      {
        "type": "HI-TEK",
        "path": "data/NorthAmerica/usa/hitek/monterey_park",
        "color": "blue"
      }
    ]
  },
  {
    "name": "Alhambra, CA",
    "lat": 34.0953,
    "lng": -118.1270,
    "links": [
      {
        "type": "HI-TEK",
        "path": "data/NorthAmerica/usa/hitek/alhambra",
        "color": "blue"
      }
    ]
  },
  {
    "name": "San Diego, CA",
    "lat": 32.7157,
    "lng": -117.1611,
    "links": [
      {
        "type": "HI-TEK",
        "path": "data/NorthAmerica/usa/hitek/san_diego",
        "color": "blue"
      },
      {
        "type": "YESG2M(PLS)",
        "path": "data/NorthAmerica/usa/pls/san_diego",
        "color": "blue"
      }
    ]
  },
  {
    "name": "Chula Vista, CA",
    "lat": 32.6401,
    "lng": -117.0841,
    "links": [
      {
        "type": "HI-TEK",
        "path": "data/NorthAmerica/usa/hitek/chula_vista",
        "color": "blue"
      },
      {
        "type": "YESG2M(PLS)",
        "path": "data/NorthAmerica/usa/pls/chula_vista",
        "color": "blue"
      }
    ]
  },
  {
    "name": "El Centro, CA",
    "lat": 32.7920,
    "lng": -115.5634,
    "links": [
      {
        "type": "HI-TEK",
        "path": "data/NorthAmerica/usa/hitek/el_centro",
        "color": "blue"
      },
      {
        "type": "YESG2M(PLS)",
        "path": "data/NorthAmerica/usa/pls/el_centro",
        "color": "blue"
      }
    ]
  },
  {
    "name": "Bakersfield, CA",
    "lat": 35.3733,
    "lng": -119.0187,
    "links": [
      {
        "type": "HI-TEK",
        "path": "data/NorthAmerica/usa/hitek/bakersfield-santa_barbara",
        "color": "blue"
      },
      {
        "type": "YESG2M(PLS)",
        "path": "data/NorthAmerica/usa/pls/bakersfield-santa_barbara",
        "color": "blue"
      }
    ]
  },
    {
    "name": "Santa Barbara, CA",
    "lat": 34.4208,
    "lng": -119.6982,
    "links": [
      {
        "type": "HI-TEK",
        "path": "data/NorthAmerica/usa/hitek/bakersfield-santa_barbara",
        "color": "blue"
      },
      {
        "type": "YESG2M(PLS)",
        "path": "data/NorthAmerica/usa/pls/bakersfield-santa_barbara",
        "color": "blue"
      }
    ]
  },
  {
    "name": "Fresno, CA",
    "lat": 36.7378,
    "lng": -119.7871,
    "links": [
      {
        "type": "HI-TEK",
        "path": "data/NorthAmerica/usa/hitek/fresno",
        "color": "blue"
      },
      {
        "type": "PLS(YESG2M)",
        "path": "data/NorthAmerica/usa/pls/fresno",
        "color": "blue"
      }
    ]
  },
  {
    "name": "San Jose, CA",
    "lat": 37.3382,
    "lng": -121.8863,
    "links": [
      {
        "type": "HI-TEK",
        "path": "data/NorthAmerica/usa/hitek/san_jose",
        "color": "blue"
      },
      {
        "type": "PLS(YESG2M)",
        "path": "data/NorthAmerica/usa/pls/san_jose-san_francisco",
        "color": "blue"
      }
    ]
  },
  {
    "name": "San Francisco, CA",
    "lat": 37.7749,
    "lng": -122.4194,
    "links": [
      {
        "type": "HI-TEK",
        "path": "data/NorthAmerica/usa/hitek/san_francisco",
        "color": "blue"
      },
      {
        "type": "PLS(YESG2M)",
        "path": "data/NorthAmerica/usa/pls/san_jose-san_francisco",
        "color": "blue"
      }
    ]
  },
  {
    "name": "Sacramento, CA",
    "lat": 38.5816,
    "lng": -121.4944,
    "links": [
      {
        "type": "HI-TEK",
        "path": "data/NorthAmerica/usa/hitek/sacramento",
        "color": "blue"
      },
      {
        "type": "PLS(YESG2M)",
        "path": "data/NorthAmerica/usa/pls/sacramento",
        "color": "blue"
      }
    ]
  },
{
  "name": "Las Vegas, NV",
  "lat": 36.1699,
  "lng": -115.1398,
  "links": [
    {
      "type": "HI-TEK",
      "path": "data/NorthAmerica/usa/hitek/las_vegas",
      "color": "blue"
    },
    {
        "type": "PLS(YESG2M)",
      "path": "data/NorthAmerica/usa/pls/las_vegas",
      "color": "blue"
    }
  ]
},
{
  "name": "Reno, NV",
  "lat": 39.5296,
  "lng": -119.8138,
  "links": [
    {
      "type": "HI-TEK",
      "path": "data/NorthAmerica/usa/hitek/reno",
      "color": "blue"
    },
    {
      "type": "PLS(YESG2M)",
      "path": "data/NorthAmerica/usa/pls/reno",
      "color": "blue"
    }
  ]
},
  {
    "name": "Phoenix, AZ",
    "lat": 33.4484,
    "lng": -112.0740,
    "links": [
      {
        "type": "HI-TEK",
        "path": "data/NorthAmerica/usa/hitek/phoenix",
        "color": "blue"
      },
      {
      "type": "PLS(YESG2M)",
        "path": "data/NorthAmerica/usa/pls/phoenix",
        "color": "blue"
      }
    ]
  },
  {
    "name": "Tucson, AZ",
    "lat": 32.2226,
    "lng": -110.9747,
    "links": [
      {
        "type": "HI-TEK",
        "path": "data/NorthAmerica/usa/hitek/tucson",
        "color": "blue"
      },
      {
      "type": "PLS(YESG2M)",
        "path": "data/NorthAmerica/usa/pls/tucson",
        "color": "blue"
      }
    ]
  },
  {
    "name": "Portland, OR",
    "lat": 45.5152,
    "lng": -122.6784,
    "links": [
      {
        "type": "HI-TEK",
        "path": "data/NorthAmerica/usa/hitek/portland",
        "color": "blue"
      },
      {
        "type": "PLS(YESG2M)",
        "path": "data/NorthAmerica/usa/pls/portland",
        "color": "blue"
      }
    ]
  },
  {
    "name": "La pine, OR",
    "lat": 43.67917,
    "lng": -121.49583,
    "links": [
      {
        "type": "HI-TEK",
        "path": "data/NorthAmerica/usa/hitek/la_pine",
        "color": "blue"
      }
    ]
  },
  {
    "name": "Seattle, WA",
    "lat": 47.6062,
    "lng": -122.3321,
    "links": [
      {
        "type": "HI-TEK",
        "path": "data/NorthAmerica/usa/hitek/seattle",
        "color": "blue"
      },
      {
        "type": "PLS(YESG2M)",
        "path": "data/NorthAmerica/usa/pls/seattle",
        "color": "blue"
      }
    ]
  },
  {
    "name": "Yakima, WA",
    "lat": 46.6021,
    "lng": -120.5059,
    "links": [
      {
        "type": "YESG2M(PLS)",
        "path": "data/NorthAmerica/usa/pls/yakima",
        "color": "blue"
      }
    ]
  },
  {
    "name": "Spokane, WA",
    "lat": 47.6588,
    "lng": -117.4260,
    "links": [
      {
        "type": "YESG2M(PLS)",
        "path": "data/NorthAmerica/usa/pls/spokane",
        "color": "blue"
      }
    ]
  },
  {
    "name": "Omaha, NE",
      "lat": 41.2565,
      "lng": -95.9345,
    "links": [
      {
        "type": "HI-TEK",
        "path": "data/NorthAmerica/usa/hitek/omaha",
        "color": "blue"
      },
      {
        "type": "SOS",
        "path": "data/NorthAmerica/usa/sos/omaha",
        "color": "blue"
      }
    ]
  },
  {
    "name": "Lincoln, NE",
    "lat": 40.8136,
    "lng": -96.7075,
    "links": [
      {
        "type": "HI-TEK",
        "path": "data/NorthAmerica/usa/hitek/lincoln",
        "color": "blue"
      },
      {
        "type": "SOS",
        "path": "data/NorthAmerica/usa/sos/lincoln",
        "color": "blue"
      }
    ]
  },
  {
    "name": "Salt Lake City, UT",
    "lat": 40.7608,
    "lng": -111.8910,
    "links": [
      {
        "type": "HI-TEK",
        "path": "data/NorthAmerica/usa/hitek/salt_lake_city",
        "color": "blue"
      },
      {
        "type": "YESG2M(PLS)",
        "path": "data/NorthAmerica/usa/pls/salt_lake_city",
        "color": "blue"
      }
    ]
  },
  {
    "name": "Denver, CO",
    "lat": 39.7392,
    "lng": -104.9903,
    "links": [
      {
        "type": "HI-TEK",
        "path": "data/NorthAmerica/usa/hitek/denver",
        "color": "blue"
      },
      {
        "type": "YESG2M(PLS)",
        "path": "data/NorthAmerica/usa/pls/denver",
        "color": "blue"
      }
    ]
  },
  {
    "name": "Albuquerque, NM",
    "lat": 35.0844,
    "lng": -106.6504,
    "links": [
      {
        "type": "HI-TEK",
        "path": "data/NorthAmerica/usa/hitek/albuquerque",
        "color": "blue"
      },
      {
        "type": "YESG2M(PLS)",
        "path": "data/NorthAmerica/usa/pls/albuquerque",
        "color": "blue"
      }
    ]
  },
  {
    "name": "El Paso, TX",
    "lat": 31.75917,
    "lng": -106.48861,
    "links": [
      {
        "type": "HI-TEK",
        "path": "data/NorthAmerica/usa/hitek/el_paso-dallas-houston-austin-college_station-san_antonio",
        "color": "blue"
      },
      {
        "type": "YESG2M(PLS)",
        "path": "data/NorthAmerica/usa/pls/el_paso-college_station-san_antonio-corpus_christi-mission",
        "color": "blue"
      }
    ]
  },
  {
    "name": "Dallas, TX",
    "lat": 32.776236,
    "lng": -96.796838,
    "links": [
      {
        "type": "HI-TEK",
        "path": "data/NorthAmerica/usa/hitek/el_paso-dallas-houston-austin-college_station-san_antonio",
        "color": "blue"
      },
      {
        "type": "SOS",
        "path": "data/NorthAmerica/usa/sos/dallas",
        "color": "blue"
      },
      {
        "type": "YESG2M(PLS)",
        "path": "data/NorthAmerica/usa/pls/dallas",
        "color": "blue"
      }
    ]
  },
  {
    "name": "Houston, TX",
    "lat": 29.7604,
    "lng": -95.3698,
    "links": [
      {
        "type": "HI-TEK",
        "path": "data/NorthAmerica/usa/hitek/el_paso-dallas-houston-austin-college_station-san_antonio",
        "color": "blue"
      },
      {
        "type": "SOS",
        "path": "data/NorthAmerica/usa/sos/houston",
        "color": "blue"
      },
      {
        "type": "YESG2M(PLS)",
        "path": "data/NorthAmerica/usa/pls/houston",
        "color": "blue"
      }
    ]
  },
  {
    "name": "Austin, TX",
    "lat": 30.266666,
    "lng": -97.733330,
    "links": [
      {
        "type": "HI-TEK",
        "path": "data/NorthAmerica/usa/hitek/el_paso-dallas-houston-austin-college_station-san_antonio",
        "color": "blue"
      },
      {
        "type": "SOS",
        "path": "data/NorthAmerica/usa/sos/austin",
        "color": "blue"
      },
      {
        "type": "YESG2M(PLS)",
        "path": "data/NorthAmerica/usa/pls/austin",
        "color": "blue"
      }
    ]
  },
  {
    "name": "College Station, TX",
    "lat": 30.601389,
    "lng": -96.314445,
    "links": [
      {
        "type": "HI-TEK",
        "path": "data/NorthAmerica/usa/hitek/el_paso-dallas-houston-austin-college_station-san_antonio",
        "color": "blue"
      },
      {
        "type": "SOS",
        "path": "data/NorthAmerica/usa/sos/college_station",
        "color": "blue"
      },
      {
        "type": "YESG2M(PLS)",
        "path": "data/NorthAmerica/usa/pls/el_paso-college_station-san_antonio-corpus_christi-mission",
        "color": "blue"
      }
    ]
  },
  {
    "name": "San Antonio, TX",
    "lat": 29.4241,
    "lng": -98.4936,
    "links": [
      {
        "type": "HI-TEK",
        "path": "data/NorthAmerica/usa/hitek/el_paso-dallas-houston-austin-college_station-san_antonio",
        "color": "blue"
      },
      {
        "type": "YESG2M(PLS)",
        "path": "data/NorthAmerica/usa/pls/el_paso-college_station-san_antonio-corpus_christi-mission",
        "color": "blue"
      }
    ]
  },
  {
    "name": "Corpus Christi, TX",
    "lat": 27.8006,
    "lng": -97.3964,
    "links": [
      {
        "type": "HI-TEK",
        "path": "data/NorthAmerica/usa/hitek/corpus_christi",
        "color": "blue"
      },
      {
        "type": "YESG2M(PLS)",
        "path": "data/NorthAmerica/usa/pls/el_paso-college_station-san_antonio-corpus_christi-mission",
        "color": "blue"
      }
    ]
  },
  {
    "name": "Mission, TX",
    "lat": 26.2159,
    "lng": -98.3253,
    "links": [
      {
        "type": "HI-TEK",
        "path": "data/NorthAmerica/usa/hitek/mission",
        "color": "blue"
      },
      {
        "type": "YESG2M(PLS)",
        "path": "data/NorthAmerica/usa/pls/el_paso-college_station-san_antonio-corpus_christi-mission",
        "color": "blue"
      }
    ]
  },
  {
    "name": "Oklahoma City, OK",
    "lat": 35.4676,
    "lng": -97.5164,
    "links": [
      {
        "type": "HI-TEK",
        "path": "data/NorthAmerica/usa/hitek/oklahoma_city",
        "color": "blue"
      }
    ]
  },
  {
    "name": "Kansas City, KS",
    "lat": 39.1142,
    "lng": -94.6275,
    "links": [
      {
        "type": "HI-TEK",
        "path": "data/NorthAmerica/usa/hitek/kansas_city",
        "color": "blue"
      },
      {
        "type": "SOS",
        "path": "data/NorthAmerica/usa/sos/kansas_city",
        "color": "blue"
      }
    ]
  },
  {
    "name": "New Orleans, LA",
    "lat": 29.96667,
    "lng": -90.05,
    "links": [
      {
        "type": "HI-TEK",
        "path": "data/NorthAmerica/usa/hitek/new_orleans",
        "color": "blue"
      },
      {
        "type": "SOS",
        "path": "data/NorthAmerica/usa/sos/new_orleans",
        "color": "blue"
      }
    ]
  },
  {
    "name": "Baton Rouge, LA",
    "lat": 30.4515,
    "lng": -91.1871,
    "links": [
      {
        "type": "HI-TEK",
        "path": "data/NorthAmerica/usa/hitek/baton_rouge",
        "color": "blue"
      }
    ]
  },
  {
    "name": "Chicago, IL",
    "lat": 41.8781,
    "lng": -87.6298,
    "links": [
      {
        "type": "HI-TEK",
        "path": "data/NorthAmerica/usa/hitek/chicago",
        "color": "blue"
      },
      {
        "type": "SOS",
        "path": "data/NorthAmerica/usa/sos/chicago",
        "color": "blue"
      }
    ]
  },
  {
    "name": "Champaign, IL",
    "lat": 40.116421,
    "lng": -88.243385,
    "links": [
      {
        "type": "SOS",
        "path": "data/NorthAmerica/usa/sos/champaign",
        "color": "blue"
      }
    ]
  },
  {
    "name": "Louisville, KY",
    "lat": 38.2527,
    "lng": -85.7585,
    "links": [
      {
        "type": "HI-TEK",
        "path": "data/NorthAmerica/usa/hitek/louisville",
        "color": "blue"
      },
      {
        "type": "SOS",
        "path": "data/NorthAmerica/usa/sos/louisville",
        "color": "blue"
      },
      {
        "type": "KT EXPRESS",
        "path": "data/NorthAmerica/usa/kt/louisville-lexington",
        "color": "blue"
      }
    ]
  },
  {
    "name": "Lexington, KY",
    "lat": 38.0406,
    "lng": -84.5037,
    "links": [
      {
        "type": "HI-TEK",
        "path": "data/NorthAmerica/usa/hitek/lexington",
        "color": "blue"
      },
      {
        "type": "SOS",
        "path": "data/NorthAmerica/usa/sos/lexington",
        "color": "blue"
      },
      {
        "type": "KT EXPRESS",
        "path": "data/NorthAmerica/usa/kt/louisville-lexington",
        "color": "blue"
      }
    ]
  },
  {
    "name": "St. Louis, MO",
    "lat": 38.6270,
    "lng": -90.1994,
    "links": [
     {
        "type": "HI-TEK",
        "path": "data/NorthAmerica/usa/hitek/st_louis",
        "color": "blue"
      },
     {
        "type": "SOS",
        "path": "data/NorthAmerica/usa/sos/st_louis",
        "color": "blue"
      }
    ]
  },
  {
    "name": "Columbia, MO",
    "lat": 39.9511,
    "lng": -92.3341,
    "links": [
     {
        "type": "HI-TEK",
        "path": "data/NorthAmerica/usa/hitek/columbiaMO",
        "color": "blue"
      },
     {
        "type": "SOS",
        "path": "data/NorthAmerica/usa/sos/columbiaMO",
        "color": "blue"
      }
    ]
  },
  {
    "name": "Lafayette, IN",
    "lat": 40.4138,
    "lng": -86.8753,
    "links": [
      {
        "type": "HI-TEK",
        "path": "data/NorthAmerica/usa/hitek/lafayetteIN",
        "color": "blue"
      },
      {
        "type": "SOS",
        "path": "data/NorthAmerica/usa/sos/lafayetteIN",
        "color": "blue"
      }
    ]
  },
  {
    "name": "Indianapolis, IN",
    "lat": 39.7684,
    "lng": -86.1580,
    "links": [
     {
        "type": "HI-TEK",
        "path": "data/NorthAmerica/usa/hitek/indianapolis",
        "color": "blue"
      },
     {
        "type": "SOS",
        "path": "data/NorthAmerica/usa/sos/indianapolis",
        "color": "blue"
      }
    ]
  },
  {
    "name": "Bloomington, IN",
    "lat": 39.1653,
    "lng": -86.5264,
    "links": [
      {
        "type": "HI-TEK",
        "path": "data/NorthAmerica/usa/hitek/bloomington",
        "color": "blue"
      },
      {
        "type": "SOS",
        "path": "data/NorthAmerica/usa/sos/bloomington",
        "color": "blue"
      }
    ]
  },
  {
    "name": "Cincinnati, OH",
    "lat": 39.1031,
    "lng": -84.5120,
    "links": [
      {
        "type": "HI-TEK",
        "path": "data/NorthAmerica/usa/hitek/cincinnati",
        "color": "blue"
      },
      {
        "type": "SOS",
        "path": "data/NorthAmerica/usa/sos/cincinnati",
        "color": "blue"
      },
      {
        "type": "KT EXPRESS",
        "path": "data/NorthAmerica/usa/kt/cincinnati",
        "color": "blue"
      }
    ]
  },
  {
    "name": "Lafayette, OH",
    "lat": 40.75889,
    "lng": -83.95000,
    "links": [
      {
        "type": "HI-TEK",
        "path": "data/NorthAmerica/usa/hitek/lafayetteOH",
        "color": "blue"
      }
    ]
  },
  {
    "name": "Columbus, OH",
    "lat": 39.9612,
    "lng": -82.9988,
    "links": [
      {
        "type": "HI-TEK",
        "path": "data/NorthAmerica/usa/hitek/columbusOH",
        "color": "blue"
      },
      {
        "type": "SOS",
        "path": "data/NorthAmerica/usa/sos/columbusOH",
        "color": "blue"
      },
      {
        "type": "KT EXPRESS",
        "path": "data/NorthAmerica/usa/kt/columbusOH",
        "color": "blue"
      }
    ]
  },
  {
    "name": "Dayton, OH",
    "lat": 39.758949,
    "lng": -84.191605,
    "links": [
      {
        "type": "SOS",
        "path": "data/NorthAmerica/usa/sos/dayton",
        "color": "blue"
      }
    ]
  },
  {
    "name": "Cleveland, OH",
    "lat": 41.505493,
    "lng": -81.681290,
    "links": [
      {
        "type": "SOS",
        "path": "data/NorthAmerica/usa/sos/cleveland",
        "color": "blue"
      }
    ]
  },
  {
    "name": "Akron, OH",
    "lat": 41.081445,
    "lng": -81.519005,
    "links": [
      {
        "type": "SOS",
        "path": "data/NorthAmerica/usa/sos/akron",
        "color": "blue"
      }
    ]
  },
  {
    "name": "Troy, MI",
    "lat": 42.6064,
    "lng": -83.1496,
    "links": [
      {
        "type": "HI-TEK",
        "path": "data/NorthAmerica/usa/hitek/troy",
        "color": "blue"
      },
      {
        "type": "SOS",
        "path": "data/NorthAmerica/usa/sos/troy",
        "color": "blue"
      }
    ]
  },
  {
    "name": "Detroit, MI",
    "lat": 42.3314,
    "lng": -83.0458,
    "links": [
      {
        "type": "HI-TEK",
        "path": "data/NorthAmerica/usa/hitek/detroit",
        "color": "blue"
      },
      {
        "type": "SOS",
        "path": "data/NorthAmerica/usa/sos/detroit",
        "color": "blue"
      }
    ]
  },
  {
    "name": "Ann Arbor, MI",
    "lat": 42.2808,
    "lng": -83.7430,
    "links": [
      {
        "type": "HI-TEK",
        "path": "data/NorthAmerica/usa/hitek/ann_arbor",
        "color": "blue"
      },
      {
        "type": "SOS",
        "path": "data/NorthAmerica/usa/sos/ann_arbor",
        "color": "blue"
      }
    ]
  },
  {
    "name": "Kalamazoo, MI",
    "lat": 42.299152,
    "lng": -85.591736,
    "links": [
      {
        "type": "SOS",
        "path": "data/NorthAmerica/usa/sos/kalamazoo",
        "color": "blue"
      }
    ]
  },
  {
    "name": "Lansing, MI",
    "lat": 42.732536,
    "lng": -84.555534,
    "links": [
      {
        "type": "SOS",
        "path": "data/NorthAmerica/usa/sos/lansing",
        "color": "blue"
      }
    ]
  },
  {
    "name": "Holland, MI",
    "lat": 42.7875235,
    "lng": -86.1089301,
    "links": [
      {
        "type": "SOS",
        "path": "data/NorthAmerica/usa/sos/holland",
        "color": "blue"
      }
    ]
  },
  {
    "name": "Midland, MI",
    "lat": 43.618183,
    "lng": -84.234238,
    "links": [
      {
        "type": "SOS",
        "path": "data/NorthAmerica/usa/sos/midland",
        "color": "blue"
      }
    ]
  },
  {
    "name": "Des Moines, IA",
    "lat": 41.5868,
    "lng": -93.6250,
    "links": [
      {
        "type": "HI-TEK",
        "path": "data/NorthAmerica/usa/hitek/des_moines",
        "color": "blue"
      },
      {
        "type": "SOS",
        "path": "data/NorthAmerica/usa/sos/des_moines",
        "color": "blue"
      }
    ]
  },
  {
    "name": "Iowa City, IA",
    "lat": 41.6611,
    "lng": -91.5302,
    "links": [
      {
        "type": "HI-TEK",
        "path": "data/NorthAmerica/usa/hitek/iowa_city",
        "color": "blue"
      },
      {
        "type": "SOS",
        "path": "data/NorthAmerica/usa/sos/iowa_city",
        "color": "blue"
      }
    ]
  },
  {
    "name": "Milwaukee, WI",
    "lat": 43.0389,
    "lng": -87.9065,
    "links": [
      {
        "type": "HI-TEK",
        "path": "data/NorthAmerica/usa/hitek/milwaukee",
        "color": "blue"
      },
      {
        "type": "SOS",
        "path": "data/NorthAmerica/usa/sos/milwaukee",
        "color": "blue"
      }
    ]
  },
  {
    "name": "Madison, WI",
    "lat": 43.0731,
    "lng": -89.4012,
    "links": [
      {
        "type": "HI-TEK",
        "path": "data/NorthAmerica/usa/hitek/madison",
        "color": "blue"
      },
      {
        "type": "SOS",
        "path": "data/NorthAmerica/usa/sos/madison",
        "color": "blue"
      }
    ]
  },
  {
    "name": "St. Paul, MN",
    "lat": 44.9537,
    "lng": -93.0900,
    "links": [
      {
        "type": "HI-TEK",
        "path": "data/NorthAmerica/usa/hitek/st_paul",
        "color": "blue"
      },
      {
        "type": "SOS",
        "path": "data/NorthAmerica/usa/sos/st_paul",
        "color": "blue"
      }
    ]
  },
  {
    "name": "Minneapolis, MN",
    "lat": 44.9778,
    "lng": -93.2650,
    "links": [
      {
        "type": "HI-TEK",
        "path": "data/NorthAmerica/usa/hitek/minneapolis",
        "color": "blue"
      },
      {
        "type": "SOS",
        "path": "data/NorthAmerica/usa/sos/minneapolis",
        "color": "blue"
      }
    ]
  },
  {
    "name": "Rochester, MN",
    "lat": 44.012122,
    "lng": -92.480198,
    "links": [
      {
        "type": "SOS",
        "path": "data/NorthAmerica/usa/sos/rochester",
        "color": "blue"
      }
    ]
  },
  {
    "name": "Atlanta, GA",
    "lat": 33.749,
    "lng": -84.388,
    "links": [
      {
        "type": "HI-TEK",
        "path": "data/NorthAmerica/usa/hitek/atlanta",
        "color": "blue"
      },
      {
        "type": "SOS",
        "path": "data/NorthAmerica/usa/sos/atlanta",
        "color": "blue"
      },
      {
        "type": "KT EXPRESS",
        "path": "data/NorthAmerica/usa/kt/atlanta",
        "color": "blue"
      },
      {
        "type": "YESG2M(PLS)",
        "path": "data/NorthAmerica/usa/pls/atlanta",
        "color": "blue"
      }
    ]
  },
  {
    "name": "LaGrange, GA",
    "lat": 33.0362,
    "lng": -85.0319,
    "links": [
      {
        "type": "SOS",
        "path": "data/NorthAmerica/usa/sos/lagrange",
        "color": "blue"
      },
      {
        "type": "KT EXPRESS",
        "path": "data/NorthAmerica/usa/kt/lagrange-cartersville",
        "color": "blue"
      },
      {
        "type": "YESG2M(PLS)",
        "path": "data/NorthAmerica/usa/pls/la_grange",
        "color": "blue"
      }
    ]
  },
  {
    "name": "Augusta, GA",
    "lat": 33.4735,
    "lng": -82.0105,
    "links": [
      {
        "type": "KT EXPRESS",
        "path": "data/NorthAmerica/usa/kt/augusta",
        "color": "blue"
      },
      {
        "type": "YESG2M(PLS)",
        "path": "data/NorthAmerica/usa/pls/augusta",
        "color": "blue"
      }
    ]
  },
  {
    "name": "Cartersville, GA",
    "lat": 34.166080,
    "lng": -84.800613,
    "links": [
      {
        "type": "SOS",
        "path": "data/NorthAmerica/usa/sos/cartersville",
        "color": "blue"
      },
      {
        "type": "KT EXPRESS",
        "path": "data/NorthAmerica/usa/kt/lagrange-cartersville",
        "color": "blue"
      }
    ]
  },
{
  "name": "Newnan, GA",
  "lat": 33.3807,
  "lng": -84.7997,
  "links": [
    {
      "type": "SOS",
      "path": "data/NorthAmerica/usa/sos/newnan",
      "color": "blue"
    }
  ]
},
  {
    "name": "Savannah, GA",
    "lat": 32.0835,
    "lng": -81.0998,
    "links": [
      {
        "type": "SOS",
        "path": "data/NorthAmerica/usa/sos/savannah",
        "color": "blue"
      },
      {
        "type": "KT EXPRESS",
        "path": "data/NorthAmerica/usa/kt/savannah",
        "color": "blue"
      },
      {
        "type": "YESG2M(PLS)",
        "path": "data/NorthAmerica/usa/pls/savannah",
        "color": "blue"
      }
    ]
  },
  {
    "name": "Montgomery, AL",
    "lat": 32.3792,
    "lng": -86.3077,
    "links": [
      {
        "type": "HI-TEK",
        "path": "data/NorthAmerica/usa/hitek/montgomery",
        "color": "blue"
      },
      {
        "type": "SOS",
        "path": "data/NorthAmerica/usa/sos/montgomery",
        "color": "blue"
      },
      {
        "type": "KT EXPRESS",
        "path": "data/NorthAmerica/usa/kt/montgomery",
        "color": "blue"
      },
      {
        "type": "YESG2M(PLS)",
        "path": "data/NorthAmerica/usa/pls/montgomery",
        "color": "blue"
      }
    ]
  },
  {
    "name": "Auburn, AL",
    "lat": 32.59778,
    "lng": -85.48083,
    "links": [
      {
        "type": "HI-TEK",
        "path": "data/NorthAmerica/usa/hitek/auburn",
        "color": "blue"
      },
      {
        "type": "SOS",
        "path": "data/NorthAmerica/usa/sos/auburn",
        "color": "blue"
      },
      {
        "type": "KT EXPRESS",
        "path": "data/NorthAmerica/usa/kt/auburn",
        "color": "blue"
      },
      {
        "type": "YESG2M(PLS)",
        "path": "data/NorthAmerica/usa/pls/auburn",
        "color": "blue"
      }
    ]
  },
  {
    "name": "Birmingham, AL",
    "lat": 33.5186,
    "lng": -86.8104,
    "links": [
      {
        "type": "SOS",
        "path": "data/NorthAmerica/usa/sos/birmingham",
        "color": "blue"
      },
      {
        "type": "KT EXPRESS",
        "path": "data/NorthAmerica/usa/kt/birmingham",
        "color": "blue"
      },
      {
        "type": "YESG2M(PLS)",
        "path": "data/NorthAmerica/usa/pls/birmingham",
        "color": "blue"
      }
    ]
  },
  {
    "name": "Huntsville, AL",
    "lat": 34.7304,
    "lng": -86.5861,
    "links": [
      {
        "type": "SOS",
        "path": "data/NorthAmerica/usa/sos/huntsville",
        "color": "blue"
      },
      {
        "type": "KT EXPRESS",
        "path": "data/NorthAmerica/usa/kt/huntsville",
        "color": "blue"
      },
      {
        "type": "YESG2M(PLS)",
        "path": "data/NorthAmerica/usa/pls/huntsville",
        "color": "blue"
      }
    ]
  },
  {
    "name": "Mobile, AL",
    "lat": 30.6954,
    "lng": -88.1399,
    "links": [
      {
        "type": "SOS",
        "path": "data/NorthAmerica/usa/sos/mobile",
        "color": "blue"
      }
    ]
  },
  {
    "name": "Nashville, TN",
    "lat": 36.174465,
    "lng": -86.76796,
    "links": [
      {
        "type": "HI-TEK",
        "path": "data/NorthAmerica/usa/hitek/nashville",
        "color": "blue"
      },
      {
        "type": "SOS",
        "path": "data/NorthAmerica/usa/sos/nashville",
        "color": "blue"
      },
      {
        "type": "KT EXPRESS",
        "path": "data/NorthAmerica/usa/kt/nashville-knoxville",
        "color": "blue"
      }
    ]
  },
  {
    "name": "Knoxville, TN",
    "lat": 35.964668,
    "lng": -83.926453,
    "links": [
      {
        "type": "HI-TEK",
        "path": "data/NorthAmerica/usa/hitek/knoxville",
        "color": "blue"
      },
      {
        "type": "SOS",
        "path": "data/NorthAmerica/usa/sos/knoxville",
        "color": "blue"
      },
      {
        "type": "KT EXPRESS",
        "path": "data/NorthAmerica/usa/kt/nashville-knoxville",
        "color": "blue"
      }
    ]
  },
  {
    "name": "Memphis, TN",
    "lat": 35.1175,
    "lng": -89.971107,
    "links": [
      {
        "type": "HI-TEK",
        "path": "data/NorthAmerica/usa/hitek/memphis",
        "color": "blue"
      },
      {
        "type": "SOS",
        "path": "data/NorthAmerica/usa/sos/memphis",
        "color": "blue"
      },
      {
        "type": "KT EXPRESS",
        "path": "data/NorthAmerica/usa/kt/memphis",
        "color": "blue"
      }
    ]
  },
  {
    "name": "Clarksville, TN",
    "lat": 36.5298,
    "lng": -87.3595,
    "links": [
      {
        "type": "KT EXPRESS",
        "path": "data/NorthAmerica/usa/kt/clarksville",
        "color": "blue"
      }
    ]
  },
  {
    "name": "Jackson, MS",
    "lat": 32.2988,
    "lng": -90.1848,
    "links": [
      {
        "type": "HI-TEK",
        "path": "data/NorthAmerica/usa/hitek/jackson",
        "color": "blue"
      },
      {
        "type": "SOS",
        "path": "data/NorthAmerica/usa/sos/jackson",
        "color": "blue"
      },
      {
        "type": "KT EXPRESS",
        "path": "data/NorthAmerica/usa/kt/jackson",
        "color": "blue"
      }
    ]
  },
  {
    "name": "Biloxi, MS",
    "lat": 30.3953972,
    "lng": -88.8869194,
    "links": [
      {
        "type": "SOS",
        "path": "data/NorthAmerica/usa/sos/biloxi",
        "color": "blue"
      },
      {
        "type": "KT EXPRESS",
        "path": "data/NorthAmerica/usa/kt/biloxi",
        "color": "blue"
      }
    ]
  },
  {
    "name": "Little Rock, AR",
    "lat": 34.7465,
    "lng": -92.2896,
    "links": [
      {
        "type": "HI-TEK",
        "path": "data/NorthAmerica/usa/hitek/littlerock",
        "color": "blue"
      },
      {
        "type": "SOS",
        "path": "data/NorthAmerica/usa/sos/littlerock",
        "color": "blue"
      },
      {
        "type": "KT EXPRESS",
        "path": "data/NorthAmerica/usa/kt/littlerock",
        "color": "blue"
      }
    ]
  },
  {
    "name": "Columbia, SC",
    "lat": 34.0004,
    "lng": -81.0348,
    "links": [
      {
        "type": "HI-TEK",
        "path": "data/NorthAmerica/usa/hitek/columbiaSC",
        "color": "blue"
      },
      {
        "type": "SOS",
        "path": "data/NorthAmerica/usa/sos/columbiaSC",
        "color": "blue"
      },
      {
        "type": "KT EXPRESS",
        "path": "data/NorthAmerica/usa/kt/columbiaSC",
        "color": "blue"
      },
      {
        "type": "YESG2M(PLS)",
        "path": "data/NorthAmerica/usa/pls/columbiaSC",
        "color": "blue"
      }
    ]
  },
  {
    "name": "Charleston, SC",
    "lat": 32.776750,
    "lng": -79.930800,
    "links": [
      {
        "type": "SOS",
        "path": "data/NorthAmerica/usa/sos/charleston",
        "color": "blue"
      },
      {
        "type": "KT EXPRESS",
        "path": "data/NorthAmerica/usa/kt/charleston",
        "color": "blue"
      },
      {
        "type": "YESG2M(PLS)",
        "path": "data/NorthAmerica/usa/pls/charleston",
        "color": "blue"
      }
    ]
  },
  {
    "name": "Greenville, SC",
    "lat": 34.8526,
    "lng": -82.3940,
    "links": [
      {
        "type": "KT EXPRESS",
        "path": "data/NorthAmerica/usa/kt/greenville",
        "color": "blue"
      },
      {
        "type": "YESG2M(PLS)",
        "path": "data/NorthAmerica/usa/pls/greenville",
        "color": "blue"
      }
    ]
  },
  {
    "name": "Charlotte, NC",
    "lat": 35.2271,
    "lng": -80.8431,
    "links": [
      {
        "type": "HI-TEK",
        "path": "data/NorthAmerica/usa/hitek/charlotte",
        "color": "blue"
      },
      {
        "type": "SOS",
        "path": "data/NorthAmerica/usa/sos/charlotte",
        "color": "blue"
      },
      {
        "type": "KT EXPRESS",
        "path": "data/NorthAmerica/usa/kt/charlotte",
        "color": "blue"
      },
      {
        "type": "YESG2M(PLS)",
        "path": "data/NorthAmerica/usa/pls/charlotte",
        "color": "blue"
      }
    ]
  },
    {
    "name": "Greensboro, NC",
    "lat": 36.044659,
    "lng": -79.766235,
    "links": [
      {
        "type": "SOS",
        "path": "data/NorthAmerica/usa/sos/greensboro",
        "color": "blue"
      },
      {
        "type": "KT EXPRESS",
        "path": "data/NorthAmerica/usa/kt/greensboro",
        "color": "blue"
      },
      {
        "type": "YESG2M(PLS)",
        "path": "data/NorthAmerica/usa/pls/greensboro",
        "color": "blue"
      }
    ]
  },
{
  "name": "Raleigh, NC",
  "lat": 35.7796,
  "lng": -78.6382,
  "links": [
    {
      "type": "SOS",
      "path": "data/NorthAmerica/usa/sos/raleigh",
      "color": "blue"
    },
    {
      "type": "KT EXPRESS",
      "path": "data/NorthAmerica/usa/kt/raleigh",
      "color": "blue"
    },
    {
      "type": "YESG2M(PLS)",
      "path": "data/NorthAmerica/usa/pls/raleigh",
      "color": "blue"
    }
  ]
},
    {
    "name": "Durham, NC",
    "lat": 35.9940,
    "lng": -78.8986,
    "links": [
      {
        "type": "HI-TEK",
        "path": "data/NorthAmerica/usa/hitek/durham",
        "color": "blue"
      }
    ]
  },
{
  "name": "Fayetteville, NC",
  "lat": 35.0527,
  "lng": -78.8784,
  "links": [
    {
      "type": "SOS",
      "path": "data/NorthAmerica/usa/sos/fayetteville",
      "color": "blue"
    }
  ]
},
  {
    "name": "Wilmington, NC",
    "lat": 34.23722,
    "lng": -77.94667,
    "links": [
      {
        "type": "SOS",
        "path": "data/NorthAmerica/usa/sos/wilmington",
        "color": "blue"
      },
      {
        "type": "KT EXPRESS",
        "path": "data/NorthAmerica/usa/kt/wilmington",
        "color": "blue"
      }
    ]
  },
  {
    "name": "Fairfax, VA",
    "lat": 38.8462,
    "lng": -77.3064,
    "links": [
      {
        "type": "HI-TEK",
        "path": "data/NorthAmerica/usa/hitek/fairfax",
        "color": "blue"
      },
      {
        "type": "keyword",
        "path": "data/NorthAmerica/usa/keyword/alexandria-annandale-arlington-centreville-fairfax-leesburg-mclean-springfield-vienna",
        "color": "blue"
      }
    ]
  },
  {
    "name": "Alexandria, VA",
    "lat": 38.8048,
    "lng": -77.0469,
    "links": [
      {
        "type": "keyword",
        "path": "data/NorthAmerica/usa/keyword/alexandria-annandale-arlington-centreville-fairfax-leesburg-mclean-springfield-vienna",
        "color": "blue"
      }
    ]
  },
  {
    "name": "Annandale, VA",
    "lat": 38.8304,
    "lng": -77.1964,
    "links": [
      {
        "type": "keyword",
        "path": "data/NorthAmerica/usa/keyword/alexandria-annandale-arlington-centreville-fairfax-leesburg-mclean-springfield-vienna",
        "color": "blue"
      }
    ]
  },
  {
    "name": "Arlington, VA",
    "lat": 38.8816,
    "lng": -77.0910,
    "links": [
      {
        "type": "keyword",
        "path": "data/NorthAmerica/usa/keyword/alexandria-annandale-arlington-centreville-fairfax-leesburg-mclean-springfield-vienna",
        "color": "blue"
      },
      {
        "type": "KT EXPRESS",
        "path": "data/NorthAmerica/usa/kt/norfolk-arlington",
        "color": "blue"
      }
    ]
  },
  {
    "name": "Centreville, VA",
    "lat": 38.8404,
    "lng": -77.4289,
    "links": [
      {
        "type": "keyword",
        "path": "data/NorthAmerica/usa/keyword/alexandria-annandale-arlington-centreville-fairfax-leesburg-mclean-springfield-vienna",
        "color": "blue"
      }
    ]
  },
  {
    "name": "Leesburg, VA",
    "lat": 39.1157,
    "lng": -77.5636,
    "links": [
      {
        "type": "keyword",
        "path": "data/NorthAmerica/usa/keyword/alexandria-annandale-arlington-centreville-fairfax-leesburg-mclean-springfield-vienna",
        "color": "blue"
      }
    ]
  },
  {
    "name": "McLean, VA",
    "lat": 38.9339,
    "lng": -77.1773,
    "links": [
      {
        "type": "keyword",
        "path": "data/NorthAmerica/usa/keyword/alexandria-annandale-arlington-centreville-fairfax-leesburg-mclean-springfield-vienna",
        "color": "blue"
      }
    ]
  },
  {
    "name": "Springfield, VA",
    "lat": 38.7893,
    "lng": -77.1872,
    "links": [
      {
        "type": "keyword",
        "path": "data/NorthAmerica/usa/keyword/alexandria-annandale-arlington-centreville-fairfax-leesburg-mclean-springfield-vienna",
        "color": "blue"
      }
    ]
  },
  {
    "name": "Vienna, VA",
    "lat": 38.9012,
    "lng": -77.2653,
    "links": [
      {
        "type": "keyword",
        "path": "data/NorthAmerica/usa/keyword/alexandria-annandale-arlington-centreville-fairfax-leesburg-mclean-springfield-vienna",
        "color": "blue"
      }
    ]
  },
  {
    "name": "Manassas, VA",
    "lat": 38.7509,
    "lng": -77.4750,
    "links": [
      {
        "type": "keyword",
        "path": "data/NorthAmerica/usa/keyword/manassas",
        "color": "blue"
      }
    ]
  },