[
{
  "name": "Gardena, CA",
  "lat": 33.89361,
  "lng": -118.30778,
  "links": [
    {
      "type": "HI-TEK",
      "path": "data/usa/hitek/gardena",
      "color": "blue"
    }
  ]
},
  {
    "name": "Los Angeles, CA",
    "lat": 34.0536,
    "lng": -118.2430,
    "links": [
      {
        "type": "HI-TEK",
        "path": "data/usa/hitek/los_angeles",
        "color": "blue"
      }
    ]
  },
  {
    "name": "Long Beach, CA",
    "lat": 33.7705,
    "lng": -118.1937,
    "links": [
      {
        "type": "HI-TEK",
        "path": "data/usa/hitek/long_beach",
        "color": "blue"
      }
    ]
  },
  {
    "name": "Torrance, CA",
    "lat": 33.8408,
    "lng": -118.3454,
    "links": [
      {
        "type": "HI-TEK",
        "path": "data/usa/hitek/torrance",
        "color": "blue"
      }
    ]
  },
  {
    "name": "Paramount, CA",
    "lat": 33.8895,
    "lng": -118.1598,
    "links": [
      {
        "type": "HI-TEK",
        "path": "data/usa/hitek/paramount",
        "color": "blue"
      }
    ]
  },
  {
    "name": "Monterey Park, CA",
    "lat": 34.0625,
    "lng": -118.1228,
    "links": [
      {
        "type": "HI-TEK",
        "path": "data/usa/hitek/monterey_park",
        "color": "blue"
      }
    ]
  },
  {
    "name": "Alhambra, CA",
    "lat": 34.0953,
    "lng": -118.1270,
    "links": [
      {
        "type": "HI-TEK",
        "path": "data/usa/hitek/alhambra",
        "color": "blue"
      }
    ]
  },
  {
    "name": "Garden Grove, CA",
    "lat": 33.7743,
    "lng": -117.9370,
    "links": [
      {
        "type": "HI-TEK",
        "path": "data/usa/hitek/garden_grove",
        "color": "blue"
      }
    ]
  },
  {
    "name": "Irvine, CA",
    "lat": 33.6846,
    "lng": -117.8265,
    "links": [
      {
        "type": "HI-TEK",
        "path": "data/usa/hitek/irvine",
        "color": "blue"
      }
    ]
  },
  {
    "name": "Burbank, CA",
    "lat": 34.1808,
    "lng": -118.3089,
    "links": [
      {
        "type": "HI-TEK",
        "path": "data/usa/hitek/burbank",
        "color": "blue"
      }
    ]
  },
  {
    "name": "Glendale, CA",
    "lat": 34.1425,
    "lng": -118.2551,
    "links": [
      {
        "type": "HI-TEK",
        "path": "data/usa/hitek/glendale",
        "color": "blue"
      }
    ]
  },
  {
    "name": "Santa Clarita, CA",
    "lat": 34.3917,
    "lng": -118.5426,
    "links": [
      {
        "type": "HI-TEK",
        "path": "data/usa/hitek/santa_clarita",
        "color": "blue"
      }
    ]
  },
  {
    "name": "Rancho Cucamonga, CA",
    "lat": 34.1064,
    "lng": -117.5931,
    "links": [
      {
        "type": "HI-TEK",
        "path": "data/usa/hitek/rancho_cucamonga",
        "color": "blue"
      }
    ]
  },
  {
    "name": "Thousand Oaks, CA",
    "lat": 34.1706,
    "lng": -118.8376,
    "links": [
      {
        "type": "HI-TEK",
        "path": "data/usa/hitek/thousand_oaks",
        "color": "blue"
      }
    ]
  },
{
  "name": "San Diego, CA",
  "lat": 32.7157,
  "lng": -117.1611,
  "links": [
    {
      "type": "HI-TEK",
      "path": "data/usa/hitek/san_diego",
      "color": "blue"
    }
  ]
},
  {
    "name": "Chula Vista, CA",
    "lat": 32.6401,
    "lng": -117.0841,
    "links": [
      {
        "type": "HI-TEK",
        "path": "data/usa/hitek/chula_vista",
        "color": "blue"
      }
    ]
  },
  {
    "name": "El Centro, CA",
    "lat": 32.7920,
    "lng": -115.5634,
    "links": [
      {
        "type": "HI-TEK",
        "path": "data/usa/hitek/el_centro",
        "color": "blue"
      }
    ]
  },
  {
    "name": "Bakersfield, CA",
    "lat": 35.3733,
    "lng": -119.0187,
    "links": [
      {
        "type": "HI-TEK",
        "path": "data/usa/hitek/bakersfield",
        "color": "blue"
      }
    ]
  },
    {
    "name": "Santa Barbara, CA",
    "lat": 34.4208,
    "lng": -119.6982,
    "links": [
      {
        "type": "HI-TEK",
        "path": "data/usa/hitek/santa_barbara",
        "color": "blue"
      }
    ]
  },
  {
    "name": "Fresno, CA",
    "lat": 36.7378,
    "lng": -119.7871,
    "links": [
      {
        "type": "HI-TEK",
        "path": "data/usa/hitek/fresno",
        "color": "blue"
      }
    ]
  },
  {
    "name": "San Jose, CA",
    "lat": 37.3382,
    "lng": -121.8863,
    "links": [
      {
        "type": "HI-TEK",
        "path": "data/usa/hitek/san_jose",
        "color": "blue"
      }
    ]
  },
  {
    "name": "San Francisco, CA",
    "lat": 37.7749,
    "lng": -122.4194,
    "links": [
      {
        "type": "HI-TEK",
        "path": "data/usa/hitek/san_francisco",
        "color": "blue"
      }
    ]
  },
  {
    "name": "Sacramento, CA",
    "lat": 38.5816,
    "lng": -121.4944,
    "links": [
      {
        "type": "HI-TEK",
        "path": "data/usa/hitek/sacramento",
        "color": "blue"
      }
    ]
  },
{
  "name": "Las Vegas, NV",
  "lat": 36.1699,
  "lng": -115.1398,
  "links": [
    {
      "type": "HI-TEK",
      "path": "data/usa/hitek/las_vegas",
      "color": "blue"
    }
  ]
},
{
  "name": "Reno, NV",
  "lat": 39.5296,
  "lng": -119.8138,
  "links": [
    {
      "type": "HI-TEK",
      "path": "data/usa/hitek/reno",
      "color": "blue"
    }
  ]
},
  {
    "name": "Phoenix, AZ",
    "lat": 33.4484,
    "lng": -112.0740,
    "links": [
      {
        "type": "HI-TEK",
        "path": "data/usa/hitek/phoenix",
        "color": "blue"
      }
    ]
  },
  {
    "name": "Tucson, AZ",
    "lat": 32.2226,
    "lng": -110.9747,
    "links": [
      {
        "type": "HI-TEK",
        "path": "data/usa/hitek/tucson",
        "color": "blue"
      }
    ]
  },
  {
    "name": "Portland, OR",
    "lat": 45.5152,
    "lng": -122.6784,
    "links": [
      {
        "type": "HI-TEK",
        "path": "data/usa/hitek/portland",
        "color": "blue"
      }
    ]
  },
  {
    "name": "La pine, OR",
    "lat": 43.67917,
    "lng": -121.49583,
    "links": [
      {
        "type": "HI-TEK",
        "path": "data/usa/hitek/la_pine",
        "color": "blue"
      }
    ]
  },
  {
    "name": "Seattle, WA",
    "lat": 47.6062,
    "lng": -122.3321,
    "links": [
      {
        "type": "HI-TEK",
        "path": "data/usa/hitek/seattle",
        "color": "blue"
      }
    ]
  },
  {
    "name": "Omaha, NE",
      "lat": 41.2565,
      "lng": -95.9345,
    "links": [
      {
        "type": "HI-TEK",
        "path": "data/usa/hitek/omaha",
        "color": "blue"
      },
      {
        "type": "SOS",
        "path": "data/usa/sos/omaha",
        "color": "blue"
      }
    ]
  },
  {
    "name": "Lincoln, NE",
    "lat": 40.8136,
    "lng": -96.7075,
    "links": [
      {
        "type": "HI-TEK",
        "path": "data/usa/hitek/lincoln",
        "color": "blue"
      },
      {
        "type": "SOS",
        "path": "data/usa/sos/lincoln",
        "color": "blue"
      }
    ]
  },
  {
    "name": "Salt Lake City, UT",
    "lat": 40.7608,
    "lng": -111.8910,
    "links": [
      {
        "type": "HI-TEK",
        "path": "data/usa/hitek/salt_lake_city",
        "color": "blue"
      }
    ]
  },
  {
    "name": "Denver, CO",
    "lat": 39.7392,
    "lng": -104.9903,
    "links": [
      {
        "type": "HI-TEK",
        "path": "data/usa/hitek/denver",
        "color": "blue"
      }
    ]
  },
  {
    "name": "Albuquerque, NM",
    "lat": 35.0844,
    "lng": -106.6504,
    "links": [
      {
        "type": "HI-TEK",
        "path": "data/usa/hitek/albuquerque",
        "color": "blue"
      }
    ]
  },
  {
    "name": "El Paso, TX",
    "lat": 31.75917,
    "lng": -106.48861,
    "links": [
      {
        "type": "HI-TEK",
        "path": "data/usa/hitek/el_paso",
        "color": "blue"
      }
    ]
  },
  {
    "name": "Dallas, TX",
    "lat": 32.776236,
    "lng": -96.796838,
    "links": [
      {
        "type": "HI-TEK",
        "path": "data/usa/hitek/dallas",
        "color": "blue"
      },
      {
        "type": "SOS",
        "path": "data/usa/sos/dallas",
        "color": "blue"
      }
    ]
  },
  {
    "name": "Houston, TX",
    "lat": 29.7604,
    "lng": -95.3698,
    "links": [
      {
        "type": "HI-TEK",
        "path": "data/usa/hitek/houston",
        "color": "blue"
      },
      {
        "type": "SOS",
        "path": "data/usa/sos/houston",
        "color": "blue"
      }
    ]
  },
  {
    "name": "Austin, TX",
    "lat": 30.266666,
    "lng": -97.733330,
    "links": [
      {
        "type": "HI-TEK",
        "path": "data/usa/hitek/austin",
        "color": "blue"
      },
      {
        "type": "SOS",
        "path": "data/usa/sos/austin",
        "color": "blue"
      }
    ]
  },
  {
    "name": "College Station, TX",
    "lat": 30.601389,
    "lng": -96.314445,
    "links": [
      {
        "type": "HI-TEK",
        "path": "data/usa/hitek/college_station",
        "color": "blue"
      },
      {
        "type": "SOS",
        "path": "data/usa/sos/college_station",
        "color": "blue"
      }
    ]
  },
  {
    "name": "San Antonio, TX",
    "lat": 29.4241,
    "lng": -98.4936,
    "links": [
      {
        "type": "HI-TEK",
        "path": "data/usa/hitek/san_antonio",
        "color": "blue"
      }
    ]
  },
  {
    "name": "Corpus Christi, TX",
    "lat": 27.8006,
    "lng": -97.3964,
    "links": [
      {
        "type": "HI-TEK",
        "path": "data/usa/hitek/corpus_christi",
        "color": "blue"
      }
    ]
  },
  {
    "name": "Mission, TX",
    "lat": 26.2159,
    "lng": -98.3253,
    "links": [
      {
        "type": "HI-TEK",
        "path": "data/usa/hitek/mission",
        "color": "blue"
      }
    ]
  },
  {
    "name": "Oklahoma City, OK",
    "lat": 35.4676,
    "lng": -97.5164,
    "links": [
      {
        "type": "HI-TEK",
        "path": "data/usa/hitek/oklahoma_city",
        "color": "blue"
      }
    ]
  },
  {
    "name": "Kansas City, KS",
    "lat": 39.1142,
    "lng": -94.6275,
    "links": [
      {
        "type": "HI-TEK",
        "path": "data/usa/hitek/kansas_city",
        "color": "blue"
      },
      {
        "type": "SOS",
        "path": "data/usa/sos/kansas_city",
        "color": "blue"
      }
    ]
  },
  {
    "name": "New Orleans, LA",
    "lat": 29.96667,
    "lng": -90.05,
    "links": [
      {
        "type": "HI-TEK",
        "path": "data/usa/hitek/new_orleans",
        "color": "blue"
      },
      {
        "type": "SOS",
        "path": "data/usa/sos/new_orleans",
        "color": "blue"
      }
    ]
  },
  {
    "name": "Baton Rouge, LA",
    "lat": 30.4515,
    "lng": -91.1871,
    "links": [
      {
        "type": "HI-TEK",
        "path": "data/usa/hitek/baton_rouge",
        "color": "blue"
      }
    ]
  },
  {
    "name": "Chicago, IL",
    "lat": 41.8781,
    "lng": -87.6298,
    "links": [
      {
        "type": "HI-TEK",
        "path": "data/usa/hitek/chicago",
        "color": "blue"
      },
      {
        "type": "SOS",
        "path": "data/usa/sos/chicago",
        "color": "blue"
      }
    ]
  },
  {
    "name": "Champaign, IL",
    "lat": 40.116421,
    "lng": -88.243385,
    "links": [
      {
        "type": "SOS",
        "path": "data/usa/sos/champaign",
        "color": "blue"
      }
    ]
  },
  {
    "name": "Louisville, KY",
    "lat": 38.2527,
    "lng": -85.7585,
    "links": [
      {
        "type": "HI-TEK",
        "path": "data/usa/hitek/louisville",
        "color": "blue"
      },
      {
        "type": "SOS",
        "path": "data/usa/sos/louisville",
        "color": "blue"
      }
    ]
  },
  {
    "name": "Lexington, KY",
    "lat": 38.0406,
    "lng": -84.5037,
    "links": [
      {
        "type": "HI-TEK",
        "path": "data/usa/hitek/lexington",
        "color": "blue"
      },
      {
        "type": "SOS",
        "path": "data/usa/sos/lexington",
        "color": "blue"
      }
    ]
  },
  {
    "name": "St. Louis, MO",
    "lat": 38.6270,
    "lng": -90.1994,
    "links": [
     {
        "type": "HI-TEK",
        "path": "data/usa/hitek/st_louis",
        "color": "blue"
      },
     {
        "type": "SOS",
        "path": "data/usa/sos/st_louis",
        "color": "blue"
      }
    ]
  },
  {
    "name": "Columbia, MO",
    "lat": 39.9511,
    "lng": -92.3341,
    "links": [
     {
        "type": "HI-TEK",
        "path": "data/usa/hitek/columbiaMO",
        "color": "blue"
      },
     {
        "type": "SOS",
        "path": "data/usa/sos/columbiaMO",
        "color": "blue"
      }
    ]
  },
  {
    "name": "Lafayette, IN",
    "lat": 40.4138,
    "lng": -86.8753,
    "links": [
      {
        "type": "HI-TEK",
        "path": "data/usa/hitek/lafayetteIN",
        "color": "blue"
      },
      {
        "type": "SOS",
        "path": "data/usa/sos/lafayetteIN",
        "color": "blue"
      }
    ]
  },
  {
    "name": "Indianapolis, IN",
    "lat": 39.7684,
    "lng": -86.1580,
    "links": [
     {
        "type": "HI-TEK",
        "path": "data/usa/hitek/indianapolis",
        "color": "blue"
      },
     {
        "type": "SOS",
        "path": "data/usa/sos/indianapolis",
        "color": "blue"
      }
    ]
  },
  {
    "name": "Bloomington, IN",
    "lat": 39.1653,
    "lng": -86.5264,
    "links": [
      {
        "type": "HI-TEK",
        "path": "data/usa/hitek/bloomington",
        "color": "blue"
      },
      {
        "type": "SOS",
        "path": "data/usa/sos/bloomington",
        "color": "blue"
      }
    ]
  },
  {
    "name": "Cincinnati, OH",
    "lat": 39.1031,
    "lng": -84.5120,
    "links": [
      {
        "type": "HI-TEK",
        "path": "data/usa/hitek/cincinnati",
        "color": "blue"
      },
      {
        "type": "SOS",
        "path": "data/usa/sos/cincinnati",
        "color": "blue"
      }
    ]
  },
  {
    "name": "Lafayette, OH",
    "lat": 40.75889,
    "lng": -83.95000,
    "links": [
      {
        "type": "HI-TEK",
        "path": "data/usa/hitek/lafayetteOH",
        "color": "blue"
      }
    ]
  },
  {
    "name": "Columbus, OH",
    "lat": 39.9612,
    "lng": -82.9988,
    "links": [
      {
        "type": "HI-TEK",
        "path": "data/usa/hitek/columbusOH",
        "color": "blue"
      },
      {
        "type": "SOS",
        "path": "data/usa/sos/columbusOH",
        "color": "blue"
      }
    ]
  },
  {
    "name": "Dayton, OH",
    "lat": 39.758949,
    "lng": -84.191605,
    "links": [
      {
        "type": "SOS",
        "path": "data/usa/sos/dayton",
        "color": "blue"
      }
    ]
  },
  {
    "name": "Cleveland, OH",
    "lat": 41.505493,
    "lng": -81.681290,
    "links": [
      {
        "type": "SOS",
        "path": "data/usa/sos/cleveland",
        "color": "blue"
      }
    ]
  },
  {
    "name": "Akron, OH",
    "lat": 41.081445,
    "lng": -81.519005,
    "links": [
      {
        "type": "SOS",
        "path": "data/usa/sos/akron",
        "color": "blue"
      }
    ]
  },
  {
    "name": "Troy, MI",
    "lat": 42.6064,
    "lng": -83.1496,
    "links": [
      {
        "type": "HI-TEK",
        "path": "data/usa/hitek/troy",
        "color": "blue"
      },
      {
        "type": "SOS",
        "path": "data/usa/sos/troy",
        "color": "blue"
      }
    ]
  },
  {
    "name": "Detroit, MI",
    "lat": 42.3314,
    "lng": -83.0458,
    "links": [
      {
        "type": "HI-TEK",
        "path": "data/usa/hitek/detroit",
        "color": "blue"
      },
      {
        "type": "SOS",
        "path": "data/usa/sos/detroit",
        "color": "blue"
      }
    ]
  },
  {
    "name": "Ann Arbor, MI",
    "lat": 42.2808,
    "lng": -83.7430,
    "links": [
      {
        "type": "HI-TEK",
        "path": "data/usa/hitek/ann_arbor",
        "color": "blue"
      },
      {
        "type": "SOS",
        "path": "data/usa/sos/ann_arbor",
        "color": "blue"
      }
    ]
  },
  {
    "name": "Kalamazoo, MI",
    "lat": 42.299152,
    "lng": -85.591736,
    "links": [
      {
        "type": "SOS",
        "path": "data/usa/sos/kalamazoo",
        "color": "blue"
      }
    ]
  },
  {
    "name": "Lansing, MI",
    "lat": 42.732536,
    "lng": -84.555534,
    "links": [
      {
        "type": "SOS",
        "path": "data/usa/sos/lansing",
        "color": "blue"
      }
    ]
  },
  {
    "name": "Holland, MI",
    "lat": 42.7875235,
    "lng": -86.1089301,
    "links": [
      {
        "type": "SOS",
        "path": "data/usa/sos/holland",
        "color": "blue"
      }
    ]
  },
  {
    "name": "Midland, MI",
    "lat": 43.618183,
    "lng": -84.234238,
    "links": [
      {
        "type": "SOS",
        "path": "data/usa/sos/midland",
        "color": "blue"
      }
    ]
  },
  {
    "name": "Des Moines, IA",
    "lat": 41.5868,
    "lng": -93.6250,
    "links": [
      {
        "type": "HI-TEK",
        "path": "data/usa/hitek/des_moines",
        "color": "blue"
      },
      {
        "type": "SOS",
        "path": "data/usa/sos/des_moines",
        "color": "blue"
      }
    ]
  },
  {
    "name": "Iowa City, IA",
    "lat": 41.6611,
    "lng": -91.5302,
    "links": [
      {
        "type": "HI-TEK",
        "path": "data/usa/hitek/iowa_city",
        "color": "blue"
      },
      {
        "type": "SOS",
        "path": "data/usa/sos/iowa_city",
        "color": "blue"
      }
    ]
  },
  {
    "name": "Milwaukee, WI",
    "lat": 43.0389,
    "lng": -87.9065,
    "links": [
      {
        "type": "HI-TEK",
        "path": "data/usa/hitek/milwaukee",
        "color": "blue"
      },
      {
        "type": "SOS",
        "path": "data/usa/sos/milwaukee",
        "color": "blue"
      }
    ]
  },
  {
    "name": "Madison, WI",
    "lat": 43.0731,
    "lng": -89.4012,
    "links": [
      {
        "type": "HI-TEK",
        "path": "data/usa/hitek/madison",
        "color": "blue"
      },
      {
        "type": "SOS",
        "path": "data/usa/sos/madison",
        "color": "blue"
      }
    ]
  },
  {
    "name": "St. Paul, MN",
    "lat": 44.9537,
    "lng": -93.0900,
    "links": [
      {
        "type": "HI-TEK",
        "path": "data/usa/hitek/st_paul",
        "color": "blue"
      },
      {
        "type": "SOS",
        "path": "data/usa/sos/st_paul",
        "color": "blue"
      }
    ]
  },
  {
    "name": "Minneapolis, MN",
    "lat": 44.9778,
    "lng": -93.2650,
    "links": [
      {
        "type": "HI-TEK",
        "path": "data/usa/hitek/minneapolis",
        "color": "blue"
      },
      {
        "type": "SOS",
        "path": "data/usa/sos/minneapolis",
        "color": "blue"
      }
    ]
  },
  {
    "name": "Rochester, MN",
    "lat": 44.012122,
    "lng": -92.480198,
    "links": [
      {
        "type": "SOS",
        "path": "data/usa/sos/rochester",
        "color": "blue"
      }
    ]
  },
  {
    "name": "Atlanta, GA",
    "lat": 33.749,
    "lng": -84.388,
    "links": [
      {
        "type": "HI-TEK",
        "path": "data/usa/hitek/atlanta",
        "color": "blue"
      },
      {
        "type": "SOS",
        "path": "data/usa/sos/atlanta",
        "color": "blue"
      }
    ]
  },
  {
    "name": "LaGrange, GA",
    "lat": 33.0362,
    "lng": -85.0319,
    "links": [
      {
        "type": "SOS",
        "path": "data/usa/sos/lagrange",
        "color": "blue"
      }
    ]
  },
  {
    "name": "Cartersville, GA",
    "lat": 34.166080,
    "lng": -84.800613,
    "links": [
      {
        "type": "SOS",
        "path": "data/usa/sos/cartersville",
        "color": "blue"
      }
    ]
  },
{
  "name": "Newnan, GA",
  "lat": 33.3807,
  "lng": -84.7997,
  "links": [
    {
      "type": "SOS",
      "path": "data/usa/sos/newnan",
      "color": "blue"
    }
  ]
},
  {
    "name": "Savannah, GA",
    "lat": 32.0835,
    "lng": -81.0998,
    "links": [
      {
        "type": "SOS",
        "path": "data/usa/sos/savannah",
        "color": "blue"
      }
    ]
  },
  {
    "name": "Montgomery, AL",
    "lat": 32.3792,
    "lng": -86.3077,
    "links": [
      {
        "type": "HI-TEK",
        "path": "data/usa/hitek/montgomery",
        "color": "blue"
      },
      {
        "type": "SOS",
        "path": "data/usa/sos/montgomery",
        "color": "blue"
      }
    ]
  },
  {
    "name": "Auburn, AL",
    "lat": 32.59778,
    "lng": -85.48083,
    "links": [
      {
        "type": "HI-TEK",
        "path": "data/usa/hitek/auburn",
        "color": "blue"
      },
      {
        "type": "SOS",
        "path": "data/usa/sos/auburn",
        "color": "blue"
      }
    ]
  },
  {
    "name": "Birmingham, AL",
    "lat": 33.5186,
    "lng": -86.8104,
    "links": [
      {
        "type": "SOS",
        "path": "data/usa/sos/birmingham",
        "color": "blue"
      }
    ]
  },
  {
    "name": "Huntsville, AL",
    "lat": 34.7304,
    "lng": -86.5861,
    "links": [
      {
        "type": "SOS",
        "path": "data/usa/sos/huntsville",
        "color": "blue"
      }
    ]
  },
  {
    "name": "Mobile, AL",
    "lat": 30.6954,
    "lng": -88.1399,
    "links": [
      {
        "type": "SOS",
        "path": "data/usa/sos/mobile",
        "color": "blue"
      }
    ]
  },
  {
    "name": "Nashville, TN",
    "lat": 36.174465,
    "lng": -86.76796,
    "links": [
      {
        "type": "HI-TEK",
        "path": "data/usa/hitek/nashville",
        "color": "blue"
      },
      {
        "type": "SOS",
        "path": "data/usa/sos/nashville",
        "color": "blue"
      }
    ]
  },
  {
    "name": "Knoxville, TN",
    "lat": 35.964668,
    "lng": -83.926453,
    "links": [
      {
        "type": "HI-TEK",
        "path": "data/usa/hitek/knoxville",
        "color": "blue"
      },
      {
        "type": "SOS",
        "path": "data/usa/sos/knoxville",
        "color": "blue"
      }
    ]
  },
  {
    "name": "Memphis, TN",
    "lat": 35.1175,
    "lng": -89.971107,
    "links": [
      {
        "type": "HI-TEK",
        "path": "data/usa/hitek/memphis",
        "color": "blue"
      },
      {
        "type": "SOS",
        "path": "data/usa/sos/memphis",
        "color": "blue"
      }
    ]
  },
  {
    "name": "Jackson, MS",
    "lat": 32.2988,
    "lng": -90.1848,
    "links": [
      {
        "type": "HI-TEK",
        "path": "data/usa/hitek/jackson",
        "color": "blue"
      },
      {
        "type": "SOS",
        "path": "data/usa/sos/jackson",
        "color": "blue"
      }
    ]
  },
  {
    "name": "Biloxi, MS",
    "lat": 30.3953972,
    "lng": -88.8869194,
    "links": [
      {
        "type": "SOS",
        "path": "data/usa/sos/biloxi",
        "color": "blue"
      }
    ]
  },
  {
    "name": "Little Rock, AR",
    "lat": 34.7465,
    "lng": -92.2896,
    "links": [
      {
        "type": "HI-TEK",
        "path": "data/usa/hitek/littlerock",
        "color": "blue"
      },
      {
        "type": "SOS",
        "path": "data/usa/sos/littlerock",
        "color": "blue"
      }
    ]
  },
  {
    "name": "Columbia, SC",
    "lat": 34.0004,
    "lng": -81.0348,
    "links": [
      {
        "type": "HI-TEK",
        "path": "data/usa/hitek/columbiaSC",
        "color": "blue"
      },
      {
        "type": "SOS",
        "path": "data/usa/sos/columbiaSC",
        "color": "blue"
      }
    ]
  },
  {
    "name": "Charleston, SC",
    "lat": 32.776750,
    "lng": -79.930800,
    "links": [
      {
        "type": "SOS",
        "path": "data/usa/sos/charleston",
        "color": "blue"
      }
    ]
  },
  {
    "name": "Charlotte, NC",
    "lat": 35.2271,
    "lng": -80.8431,
    "links": [
      {
        "type": "HI-TEK",
        "path": "data/usa/hitek/charlotte",
        "color": "blue"
      },
      {
        "type": "SOS",
        "path": "data/usa/sos/charlotte",
        "color": "blue"
      }
    ]
  },
    {
    "name": "Greensboro, NC",
    "lat": 36.044659,
    "lng": -79.766235,
    "links": [
      {
        "type": "SOS",
        "path": "data/usa/sos/greensboro",
        "color": "blue"
      }
    ]
  },
{
  "name": "Raleigh, NC",
  "lat": 35.7796,
  "lng": -78.6382,
  "links": [
    {
      "type": "SOS",
      "path": "data/usa/sos/raleigh",
      "color": "blue"
    }
  ]
},
    {
    "name": "Durham, NC",
    "lat": 35.9940,
    "lng": -78.8986,
    "links": [
      {
        "type": "HI-TEK",
        "path": "data/usa/hitek/durham",
        "color": "blue"
      }
    ]
  },
{
  "name": "Fayetteville, NC",
  "lat": 35.0527,
  "lng": -78.8784,
  "links": [
    {
      "type": "SOS",
      "path": "data/usa/sos/fayetteville",
      "color": "blue"
    }
  ]
},
  {
    "name": "Wilmington, NC",
    "lat": 34.23722,
    "lng": -77.94667,
    "links": [
      {
        "type": "SOS",
        "path": "data/usa/sos/wilmington",
        "color": "blue"
      }
    ]
  },
  {
    "name": "Fairfax, VA",
    "lat": 38.8462,
    "lng": -77.3064,
    "links": [
      {
        "type": "HI-TEK",
        "path": "data/usa/hitek/fairfax",
        "color": "blue"
      }
    ]
  },
  {
    "name": "Newark, NJ",
    "lat": 40.7357,
    "lng": -74.1724,
    "links": [
      {
        "type": "HI-TEK",
        "path": "data/usa/hitek/newark",
        "color": "blue"
      }
    ]
  },
  {
    "name": "New York, NY",
    "lat": 40.7128,
    "lng": -74.0060,
    "links": [
      {
        "type": "HI-TEK",
        "path": "data/usa/hitek/new_york",
        "color": "blue"
      }
    ]
  },
  {
    "name": "Hartford, CT",
    "lat": 41.7637,
    "lng": -72.6851,
    "links": [
      {
        "type": "HI-TEK",
        "path": "data/usa/hitek/hartford",
        "color": "blue"
      },
      {
        "type": "keyword",
        "path": "data/usa/keyword/hartford-manchester-new_britain-new_london-west_hartford-windsor",
        "color": "blue"
      }
    ]
  },
  {
    "name": "Greenwich, CT",
    "lat": 41.0262,
    "lng": -73.6282,
    "links": [
      {
        "type": "keyword",
        "path": "data/usa/keyword/greenwich",
        "color": "blue"
      }
    ]
  },
  {
    "name": "Stamford, CT",
    "lat": 41.0534,
    "lng": -73.5387,
    "links": [
      {
        "type": "keyword",
        "path": "data/usa/keyword/stamford",
        "color": "blue"
      }
    ]
  },
  {
    "name": "Bristol, CT",
    "lat": 41.6718,
    "lng": -72.9493,
    "links": [
      {
        "type": "keyword",
        "path": "data/usa/keyword/bristol-bridgeport-danbury-new_haven-norwalk-waterbury",
        "color": "blue"
      }
    ]
  },
  {
    "name": "Norwich, CT",
    "lat": 41.5243,
    "lng": -72.0759,
    "links": [
      {
        "type": "keyword",
        "path": "data/usa/keyword/norwich",
        "color": "blue"
      }
    ]
  },
  {
    "name": "Tallahassee, FL",
    "lat": 30.4383,
    "lng": -84.2807,
    "links": [
      {
        "type": "HI-TEK",
        "path": "data/usa/hitek/tallahassee",
        "color": "blue"
      }
    ]
  },
  {
    "name": "Pensacola, FL",
    "lat": 30.4213,
    "lng": -87.2169,
    "links": [
      {
        "type": "HI-TEK",
        "path": "data/usa/hitek/pensacola",
        "color": "blue"
      }
    ]
  },
  {
    "name": "Gainesville, FL",
    "lat": 29.6526,
    "lng": -82.3437,
    "links": [
      {
        "type": "HI-TEK",
        "path": "data/usa/hitek/gainesville",
        "color": "blue"
      },
      {
        "type": "SOS",
        "path": "data/usa/sos/gainesville",
        "color": "blue"
      }
    ]
  },
  {
    "name": "Tampa, FL",
    "lat": 27.9506,
    "lng": -82.4572,
    "links": [
      {
        "type": "HI-TEK",
        "path": "data/usa/hitek/tampa",
        "color": "blue"
      },
      {
        "type": "SOS",
        "path": "data/usa/sos/tampa",
        "color": "blue"
      }
    ]
  },
  {
    "name": "Orlando, FL",
    "lat": 28.60468,
    "lng": -81.20483,
    "links": [
      {
        "type": "HI-TEK",
        "path": "data/usa/hitek/orlando",
        "color": "blue"
      },
      {
        "type": "SOS",
        "path": "data/usa/sos/orlando",
        "color": "blue"
      }
    ]
  },
  {
    "name": "Miami, FL",
    "lat": 25.761681,
    "lng": -80.191788,
    "links": [
      {
        "type": "HI-TEK",
        "path": "data/usa/hitek/miami",
        "color": "blue"
      },
      {
        "type": "SOS",
        "path": "data/usa/sos/miami",
        "color": "blue"
      }
    ]
  },
  {
    "name": "Jacksonville, FL",
    "lat": 30.332184,
    "lng": -81.655647,
    "links": [
      {
        "type": "SOS",
        "path": "data/usa/sos/jacksonville",
        "color": "blue"
      }
    ]
  },
{
  "name": "Pittsburgh, PA",
  "lat": 40.4406,
  "lng": -79.9959,
  "links": [
    {
      "type": "SOS",
      "path": "data/usa/sos/pittsburgh",
      "color": "blue"
    }
  ]
}
]
